amenity,denomination,name,religion,id,lon,lat
place_of_worship,Anglican,St Barnabas Glen Waverley Anglican Church,Christian,4463645,145.1713460875,-37.890783275
place_of_worship,Baptist,Syndal Baptist Church,Christian,8746568,145.14881390909088,-37.872698718181816
place_of_worship,Anglican,Saint Paul'S Cathedral,Christian,13127644,144.96752763809525,-37.81675311904761
place_of_worship,Lutheran,Saint Johns Southgate,Christian,15477564,144.9670328730769,-37.82070101923077
place_of_worship,Catholic,St Mary'S Cathedral,Christian,16749128,151.21342534374998,-33.871165146875
place_of_worship,Baptist,Collins Street Baptist Church,Christian,17037615,144.96773882222226,-37.814823277777776
place_of_worship,Presbyterian,Scots Church,Christian,17037928,144.96848203157896,-37.814471215789474
place_of_worship,Catholic,Regina Caeli,Christian,18535650,153.07325983333334,-27.49978076
place_of_worship,Catholic,Saint Josephs Catholic,Christian,19853684,149.12427338965517,-35.259255534482755
place_of_worship,Roman Catholic,Holy Family Catholic Church,Christian,20547454,145.1298403,-37.87375988
place_of_worship,Catholic,St Vincent De Paul,Christian,22758271,149.07749951428573,-35.255203
place_of_worship,Uniting,Saint Michaels Uniting Church,Christian,22931009,144.96917353999999,-37.814339919999995
place_of_worship,Unknown,Baha'I Temple,Bahai,23027409,151.25871420476193,-33.685445599999994
place_of_worship,Catholic,St. Dominics East Camberwell,Christian,23074041,145.08303304999998,-37.83491239000001
place_of_worship,Catholic,St Michael'S,Christian,23087564,149.11061303076923,-35.223186807692315
place_of_worship,Mormon,The Church Of Jesus Christ Of Latter-Day Saints,Christian,23242085,151.05028685833332,-33.774078583333335
place_of_worship,Anglican,St Paul'S Anglican Church Carlingford,Christian,23242086,151.04822132,-33.77594512
place_of_worship,Seventh Day Adventist,Wahroonga Seventh-Day Adventist,Christian,23646548,151.10067112857143,-33.73267792857142
place_of_worship,Anglican,Saint David'S Anglican Church,Christian,24340582,152.97354662857146,-27.514117071428576
place_of_worship,Unknown,Grace Church Of Christ,Christian,25057306,145.21693869444445,-37.852920555555556
place_of_worship,Unknown,North City Christian Centre,Christian,25359320,115.77895690000003,-31.81483081176471
place_of_worship,Catholic,St Michaels,Christian,25452825,152.9920807,-27.432404659999996
place_of_worship,Anglican,Saint Johns Cathedral,Christian,26384715,153.0301111478261,-27.46399714347826
place_of_worship,Anglican,Saint James Old Cathedral,Christian,26431244,144.95244417647058,-37.81005314117647
place_of_worship,Anglican,Merthyr Uniting Church,Christian,27617694,153.0442768125,-27.468468825000002
place_of_worship,Church Of Christ,Southern Community Church Of Christ,Christian,27859502,145.05708055000002,-37.962520614285715
place_of_worship,Pentecostal,Kingston Christian Centre,Christian,27860881,145.11096224444444,-37.95812047777778
place_of_worship,Catholic,St Peter'S Parish Church,Christian,28063544,144.85893154615385,-37.74475242307692
place_of_worship,Church Of Christ,Discovery Church,Christian,28083868,145.39431235714284,-37.79695381428571
place_of_worship,Baptist,Rowville Baptist,Christian,28118675,145.2498009,-37.92600562857143
place_of_worship,Pentecostal,Australia For Christ Felowship,Christian,28118815,145.23402076923074,-37.91568723846154
place_of_worship,Unknown,Truth And Liberation Concern,Christian,28315613,145.27441103333334,-37.831282
place_of_worship,Unknown,The Revival Fellowship,Christian,28315653,145.30768963999998,-37.80896902
place_of_worship,Christ Scientist,"First Church Of Christ, Scientist",Christian,28485566,153.0168484,-27.46708068421053
place_of_worship,Anglican,St. John'S Anglican Church,Christian,28594716,145.22297858333334,-37.865540366666664
place_of_worship,Pentecostal,South Eastern Christian Centre,Christian,28773394,145.2631855333333,-37.96639411666667
place_of_worship,Pentecostal,Peninsula City Church,Christian,28773446,145.13749702,-38.178411520000004
place_of_worship,Unknown,Welsh Church,Christian,28775707,144.95984248888888,-37.8103533
place_of_worship,Catholic,Our Lady Help Of Christians Church,Christian,29122708,144.97808862857144,-37.77767661428572
place_of_worship,Roman Catholic,Newman Chapel,Christian,29191119,144.963844375,-37.795416725
place_of_worship,Unknown,St Jude'S Parish,Christian,29397023,145.2274253368421,-37.88991138947369
place_of_worship,Catholic,Saint Mary Of The Angels,Christian,30930323,144.36039366,-38.15252304
place_of_worship,Lutheran,St Johns Lutheran Church,Christian,31781546,152.9814462,-27.537718159999997
place_of_worship,Catholic,Our Lady Of Lourdes,Christian,31893920,152.97804588,-27.5606567
place_of_worship,Sunni,Islamic Society Of Darra,Muslim,31896319,152.97056904,-27.5670261
place_of_worship,Anglican,St Thomas Anglican Church,Christian,32256440,152.99036183846152,-27.487412584615388
place_of_worship,Presbyterian,Presbyterian Church,Christian,32807056,144.21579013333334,-37.0640632
place_of_worship,Baptist,Baptist Church,Christian,32807060,144.21639698333334,-37.06346679999999
place_of_worship,Unknown,Brisbane City Church,Christian,32838822,153.04108822857143,-27.440514814285716
place_of_worship,Presbyterian,Banyo Presbyterian Church,Christian,33113152,153.08019614,-27.373565359999997
place_of_worship,Uniting,Toombul District Uniting Church,Christian,33223173,153.08335637142858,-27.378801914285713
place_of_worship,Baptist,Keperra Baptist Church,Christian,34046521,152.9556979909091,-27.4151067
place_of_worship,Uniting,Garden Suburb Uniting Church,Christian,35975424,151.68385214999998,-32.94756363333334
place_of_worship,Uniting,Stephen'S Uniting Church Fijian Congregation,Christian,37439025,153.03067155384616,-27.518944376923077
place_of_worship,Anglican,St Luke'S Anglican Church Ekibin,Christian,37439027,153.03835352,-27.515810679999998
place_of_worship,Evangelical,North Brisbane Church,Christian,37678153,153.0428838181818,-27.34021061818182
place_of_worship,Catholic,Holy Trinity Catholic Church,Christian,37705712,153.08161116000002,-27.37199972
place_of_worship,Catholic,Mary Immaculate Church,Christian,37894703,153.03044370909086,-27.516914700000005
place_of_worship,Baptist,Annerley Baptist Church,Christian,37965195,153.03154672,-27.513230540000002
place_of_worship,Unknown,Westminster Presbyterian Church,Christian,38095271,149.06240834444444,-35.25937842222222
place_of_worship,Anglican,St Matthias Anglican Church,Christian,38108296,153.03743732,-27.36516108
place_of_worship,Jehovahs Witness,Kingdom Hall Of Jehovah'S Witnesses,Christian,38326533,152.9715146888889,-27.155752533333334
place_of_worship,Anglican,Holy Trinity Church,Christian,38614568,149.60316063333337,-33.411986544444446
place_of_worship,Catholic,St Kieran'S,Christian,38662819,153.05539352,-27.29391812
place_of_worship,Anglican,Anglican Church Of Australia Tufnell Campus,Christian,39013626,153.05261248333332,-27.403049749999997
place_of_worship,Anglican,Sandgate Northpoint Anglican Parish,Christian,40487396,153.04326822000002,-27.325125499999995
place_of_worship,Mormon,The Church Of Jesus Christ Of Latter-Day Saints,Christian,40487397,153.03902034,-27.32624108
place_of_worship,Uniting,Bracken Ridge Uniting Church,Christian,40489917,153.0382091875,-27.316631550000004
place_of_worship,Anglican,Holy Trinity,Christian,40717704,153.03800808,-27.453960119999998
place_of_worship,Anglican,St. Matthews Anglican Church,Christian,42118776,151.28637988947366,-33.798476126315784
place_of_worship,Seventh Day Adventist,Toowoomba Central Seventh-Day Adventist Church,Christian,42329112,151.95769245,-27.55803666
place_of_worship,Unknown,Pure Land Learning College,Buddhist,42336604,151.9444465,-27.551125088888888
place_of_worship,Church Of Christ,Humeridge Church Of Christ,Christian,42336761,151.95018285,-27.5963250375
place_of_worship,Lutheran,Our Saviours,Christian,42341303,151.93889117999998,-27.58316466
place_of_worship,Seventh Day Adventist,Glenvale Seventh-Day Adventist Church,Christian,42344058,151.9118631,-27.56930097333333
place_of_worship,Presbyterian,West Toowoomba Presbyterian Church,Christian,42344063,151.91290855000003,-27.5732357
place_of_worship,Lutheran,St Paul'S Lutheran Church Toowoomba,Christian,42390942,151.9591044888889,-27.568947022222222
place_of_worship,New Apostolic,New Apostolic Church,Christian,42390943,151.93931128000003,-27.5660131
place_of_worship,Unknown,Clayton Chinese Christian Church,Christian,43201129,145.11499691428574,-37.908148571428576
place_of_worship,Catholic,Whitford Church,Christian,43380129,115.74540139999999,-31.77884134285714
place_of_worship,Unknown,Church Of St Oswald'S Banyo,Christian,43906549,153.07586892352944,-27.374679382352944
place_of_worship,Baptist,Gospel Baptist Church,Christian,44034357,115.80063946,-31.777687500000003
place_of_worship,Anglican,St Mary'S,Christian,44038956,115.84191510000001,-31.949864199999997
place_of_worship,Anglican,Ross Memorial Church,Christian,44038970,115.84246758000002,-31.9483881
place_of_worship,Catholic,Ss Peter & Paul Ukrainian Catholic Cathedral,Christian,44082130,144.94421283333335,-37.79643526190476
place_of_worship,Anglican,Saint Peter'S Anglican Church,Christian,44352419,115.80289964999999,-31.754350499999997
place_of_worship,Baptist,City Tabernacle,Christian,44363539,153.02464256923076,-27.46467901538462
place_of_worship,Baptist,Bracken Ridge Baptist Church,Christian,44710480,153.02774768,-27.3140155
place_of_worship,Jehovahs Witness,Kingdom Hall Of Jehovah'S Witnesses,Christian,44710493,153.02599223636363,-27.32224270909091
place_of_worship,Catholic,Saint Michaels Catholic Church,Christian,45017249,144.94560541428572,-37.79403685714286
place_of_worship,Seventh Day Adventist,Sandgate Seventh Day Adventist Church,Christian,45019827,153.05312573333333,-27.32968885
place_of_worship,Unknown,Christ Church St Kilda,Christian,45032792,144.97582482499996,-37.86360501250001
place_of_worship,Nondenominational,Melbourne Synagogue,Jewish,45148588,144.97661139565216,-37.836431456521744
place_of_worship,Catholic,Holy Trinity,Christian,45353456,115.54034528571428,-31.997414635714286
place_of_worship,Pentecostal,Kardinia Church - Melbourne,Christian,45366909,144.99674452857144,-37.855899914285715
place_of_worship,Unknown,Chapel Of St Peter,Christian,45425747,144.97702323846153,-37.83390388461539
place_of_worship,Uniting,Sandgate Uniting Church,Christian,45468895,153.05899981818177,-27.32557711818182
place_of_worship,Catholic,St Francis' Church,Christian,46224230,144.9625083777778,-37.811575580555555
place_of_worship,Unknown,Masjif Taqwah Bald Hills,Muslim,46419256,153.01641056666665,-27.32997041666667
place_of_worship,Uniting,Bracken Ridge Uniting Church,Christian,46503392,153.0382649,-27.316621257142856
place_of_worship,Catholic,St Joseph And St Anthony,Christian,46596664,153.0349412727273,-27.325300100000003
place_of_worship,Salvation Army,Perth Fortress Corps,Christian,47069202,115.86114497142857,-31.945634371428575
place_of_worship,Catholic,Our Lady Of The Mission Catholic Church,Christian,48485786,115.75800410526317,-31.785670357894734
place_of_worship,Salvation Army,Ferntree Gully Salvation Army Corps,Christian,48486517,145.2777374125,-37.875291875
place_of_worship,Anglican,St John'S,Christian,48534341,151.127992062963,-33.88141434814815
place_of_worship,Anglican,Saint John'S Anglican Church,Christian,48588413,115.74814910714285,-32.053698364285715
place_of_worship,Anglican,St Barnabas Ministry Centre,Christian,48674813,145.17094267599995,-37.890145446000005
place_of_worship,Christ Scientist,"First Church Of Christ, Scientist",Christian,48861741,115.84919786842106,-31.951798699999998
place_of_worship,Unknown,Wyndham City Church,Christian,49035816,144.61802324545454,-37.87616971818182
place_of_worship,Catholic,Saint Joan Of Arc,Christian,49394128,153.01688721176473,-27.445143052941177
place_of_worship,Unknown,The Brisbane Synagogue,Jewish,49748178,153.02692589999998,-27.47328255714286
place_of_worship,Unknown,Seaton Christian Family Centre,Christian,49753537,138.50558633478258,-34.89775242608696
place_of_worship,Hillsong,Hillsong Brisbane Campus,Christian,50115801,153.07927036249998,-27.541685875
place_of_worship,Anglican,Saint Mary'S,Christian,50544658,153.03520266363637,-27.47500759090909
place_of_worship,Uniting Church In Australia,Pilgrim House,Christian,50633581,149.12901484,-35.27663316
place_of_worship,Catholic,St Matthew'S Catholic Church,Christian,51185039,149.04166076315792,-35.24049764736843
place_of_worship,Anglican,Christ Church,Christian,51257003,152.34742397307693,-24.867408857692304
place_of_worship,Presbyterian,Creek Road Presbyterian,Christian,51768772,153.09963125238093,-27.48601415714286
place_of_worship,Unknown,Capital Bible Church,Christian,51961254,149.03491766,-35.24813572000001
place_of_worship,Church Of Christ,Berwick Church Of Christ,Christian,52262395,145.3353666882353,-38.04933007647059
place_of_worship,Nondenominational,Blue Hills Chapel,Christian,52509487,145.30009794000003,-38.114882380000005
place_of_worship,Anglican,Holy Trinity,Christian,52567820,138.5937498,-34.9222709
place_of_worship,Mormon,Church Of Jesus Christ And Latter Day Saints,Christian,52739889,149.55652128333335,-33.41105285
place_of_worship,Uniting,Logan Central Multicultural Uniting Church,Christian,52869049,153.09801670000002,-27.651588166666663
place_of_worship,Unknown,Court Of Praise,Christian,54151869,115.76171158,-31.73753388
place_of_worship,Unknown,Saint Thomas Aquinas Church,Christian,55548549,150.4211031,-34.47745816
place_of_worship,Catholic,Saint Ambrose'S,Christian,55679093,153.00651929411765,-27.440368229411764
place_of_worship,Anglican,St James' Anglican Church,Christian,55679109,153.00672651333335,-27.439652366666664
place_of_worship,Unknown,St Andrew'S Uniting Church,Christian,57901840,145.05169724,-37.85474246666667
place_of_worship,Catholic,Holy Rosary Church,Christian,57920621,149.1546685142857,-35.24628261428571
place_of_worship,Orthodox,Ukrainian Orthodox Church,Christian,58692793,138.5980972111111,-34.944035444444445
place_of_worship,Unknown,Canberra National Adventist,Christian,59584701,149.12704951538464,-35.27228588461539
place_of_worship,Catholic,St Joan Of Arc Catholic Church,Christian,59677106,144.9938987448276,-37.920070213793096
place_of_worship,Anglican,The Church Of St George The Martyr,Christian,60722847,138.59020894,-34.953826799999995
place_of_worship,Baptist,Church Of The Resurrrection,Christian,60946263,138.59969414285712,-34.94383088571429
place_of_worship,Anglican,Saint Johns,Christian,61974696,144.38761587777776,-37.18795627777778
place_of_worship,Catholic,Saint Finbarr'S Catholic Church,Christian,62280928,152.9941362076923,-27.445922046153846
place_of_worship,Anglican,Saint Paul'S Anglican Church,Christian,62281850,152.98957043636364,-27.446193418181814
place_of_worship,Unknown,Saint Pauls Church,Christian,64882375,145.01861838,-36.591256
place_of_worship,Uniting,One Tree Hill Uniting Church,Christian,67974818,138.76793644545458,-34.71838567727272
place_of_worship,Roman Catholic,Catholic Church Of The Holy Spirit,Christian,68034457,151.4846796,-32.81845048
place_of_worship,Anglican,The Church Of Saint Paul,Christian,68035141,151.48352422,-32.81751393999999
place_of_worship,Serbian Orthodox,Serbian Orthodox Church,Christian,68880905,153.02234500869565,-27.482785247826087
place_of_worship,Catholic,Murray Bridge Catholic Church,Christian,69548745,139.26940559444444,-35.11671896666665
place_of_worship,Lutheran,The Ark Lutheran Church,Christian,69560187,138.63896003870966,-34.76305018387097
place_of_worship,Catholic,Holy Cross Catholic Church,Christian,70706494,138.59051196896556,-34.954530020689646
place_of_worship,Methodist,Christ Church Wayville,Christian,70978497,138.59908274444442,-34.94614993333333
place_of_worship,Uniting,Brougham Place Uniting Church,Christian,71102963,138.60049545882353,-34.909400041176475
place_of_worship,Unknown,St. Clement,Christian,71187646,153.02030804285715,-27.48030258571429
place_of_worship,Anglican,St Andrews,Christian,72941706,153.01924575714287,-27.48152726190476
place_of_worship,Catholic,St Therese Catholic Church,Christian,75521687,151.20125075714284,-33.9260648
place_of_worship,Catholic,St Brigid'S Church,Christian,76811684,116.15256572000001,-33.35606422
place_of_worship,Lutheran,Our Saviour Lutheran Church,Christian,77998999,138.48172405555556,-34.843766844444445
place_of_worship,Roman Catholic,St Aloysius (Newman Parish),Christian,80821784,145.0254568888889,-37.87337533333333
place_of_worship,Unknown,Wesley Church,Christian,81809561,144.3614035714286,-38.150728928571425
place_of_worship,Anglican,St Barnabas,Christian,84142953,153.0194274,-30.495865633333334
place_of_worship,Unknown,The Living Way Church,Christian,85542361,151.10383742000002,-33.798889700000004
place_of_worship,Presbyterian,Scots Presbyterian Church Sydney,Christian,85690901,151.20580759,-33.86459238
place_of_worship,Roman Catholic,Mt Carmel Catholic Church,Christian,87781552,148.90970914444446,-34.84255152222222
place_of_worship,Roman Catholic,St Augustine'S Catholic Church,Christian,87781554,148.9100217923077,-34.84344463846154
place_of_worship,Uniting,Grace Christian Church,Christian,87848426,150.99680484,-33.952357515
place_of_worship,Roman Catholic,St Christophers Catholic Church,Christian,88883538,150.9974131111111,-33.95633335555556
place_of_worship,Anglican,Panania Anglican Church,Christian,88883545,150.99847302083333,-33.95707216666667
place_of_worship,Lutheran,Concordia Chapel,Christian,91644414,151.93012795714287,-27.574145314285722
place_of_worship,Unknown,Desert Life Church,Christian,93077461,133.89195028,-23.697092079999997
place_of_worship,Catholic,Our Lady Of Lourdes Church,Christian,93313635,153.06255115999997,-27.58255618
place_of_worship,Congregational,Georges River Congregational Church,Christian,93777857,150.99711394444446,-33.95667221111111
place_of_worship,Catholic,Saint Martins,Christian,93851048,153.09404472,-27.578876
place_of_worship,Baptist,Emmanuel Baptist Church,Christian,93991435,151.00386495714287,-33.94968012857144
place_of_worship,Catholic,St Leonard'S Catholic Church,Christian,95189415,151.20118737,-33.819562739999995
place_of_worship,Unknown,Sri Guru Singh Sabha Revesby Gurdwara,Sikh,95899618,151.01824001111112,-33.93953514444445
place_of_worship,Unknown,Lifegate Community Church,Christian,96492159,151.03172941428573,-33.950536042857145
place_of_worship,Anglican,St John'S Anglican Church,Christian,96492183,151.03177207058823,-33.94917137647059
place_of_worship,Uniting,Padstow Uniting Church,Christian,96492185,151.02931294210526,-33.94942007894737
place_of_worship,Unknown,South West Christian Church,Christian,96492204,151.02886212857143,-33.94898884285714
place_of_worship,Salvation Army,Panania Salvation Army,Christian,96766944,151.00247717272728,-33.956456890909095
place_of_worship,Baptist,Bellevue Baptist Church,Christian,97166801,116.03420478571427,-31.896276328571425
place_of_worship,Islamic,Australian Centre For Unity,Muslim,97375666,153.12051576000002,-27.64948298
place_of_worship,Unknown,Panania Christian Church,Christian,97510933,151.0012722,-33.95687438
place_of_worship,Roman Catholic,St Luke'S Catholic Church,Christian,97638598,151.0175622,-33.94540196
place_of_worship,Congregational,Revesby Congregational Church,Christian,97638613,151.0175784105263,-33.94431549473684
place_of_worship,Greek Orthodox,St Nicholas Serbian Orthodox Church,Christian,100220075,153.02827822777778,-27.49002291666666
place_of_worship,Presbyterian,Ann Street Presbyterian Church,Christian,101469384,153.02443654444446,-27.46799312222222
place_of_worship,Anglican,St Swithun'S Anglican Church Pymble,Christian,102514966,151.1411025939394,-33.73969811212121
place_of_worship,Uniting,North Illawarra Uniting Church,Christian,102630174,150.9144134888889,-34.32966144444444
place_of_worship,Baptist,Padstow Baptist Community Church,Christian,103755824,151.03067411111113,-33.94960492222222
place_of_worship,Baptist,Belgrave South Baptist Church,Christian,103928897,145.3564936142857,-37.93364357142857
place_of_worship,Presbyterian,St Andrew'S Presbyterian Church,Christian,104115439,150.89699512857143,-34.42641642857142
place_of_worship,Uniting,Wesley Mall,Christian,104115884,150.89646978,-34.42488397
place_of_worship,Anglican,St Andrews Cathedral,Christian,104948254,151.20621460526317,-33.87400160526315
place_of_worship,Uniting,Revesby Uniting Church,Christian,105233336,151.01724764545455,-33.957899954545454
place_of_worship,Baptist,Fairfield Baptist Church,Christian,105560504,153.02346835555556,-27.512122066666663
place_of_worship,Unknown,Bethany Gospel Hall,Christian,105700181,153.02906559230772,-27.487734184615384
place_of_worship,Anglican,Christ Church Milton Anglican Parish Of Auchenflower - Milton,Christian,106226575,153.01019223999998,-27.46618712
place_of_worship,Anglican,St. Luke'S Church,Christian,106384153,145.49087051538461,-37.93419126538462
place_of_worship,Congregational,Trinity Christian Church,Christian,106601803,151.03169995000002,-33.955715818749994
place_of_worship,Unknown,Annerley Church Of Christ,Christian,106604372,153.03220347777776,-27.50922808888889
place_of_worship,Anglican,St Mark'S Anglican Uniting Church,Christian,106757768,117.86209535999998,-30.810110999999996
place_of_worship,Anglican,Chapel Of The Holy Spirit Saint Francis Theological College,Christian,108059845,153.003568,-27.46703734
place_of_worship,Anglican,Church Of The Holy Spirit,Christian,108105773,153.03554207272728,-27.618316500000002
place_of_worship,Catholic,Sacred Heart,Christian,108433790,152.99949638,-27.463154719999995
place_of_worship,Unknown,Southern Sydney Synagogue,Jewish,112444413,151.1113888333333,-33.96919413999999
place_of_worship,Presbyterian,Caringbah Presbyterian Church,Christian,112672788,151.12276414,-34.0456102
place_of_worship,Church Of Christ,Brunswick Christian Fellowship,Christian,114768904,144.96595482222222,-37.77183168888889
place_of_worship,Unknown,St Phils Church,Christian,115105829,151.12384121666665,-34.04629045
place_of_worship,Uniting,Brunswick Uniting Church,Christian,115750491,144.9615048147059,-37.77266116176471
place_of_worship,Unknown,The Little Brown Church,Christian,118903456,153.02442466,-27.82909632
place_of_worship,Lutheran,St John'S Lutheran Church,Christian,119159405,138.71800746363635,-34.81957457272727
place_of_worship,Latter Day Saints,Beenleigh Chapel Of The Church Of Jesus Christ Of Latter-Day Saints,Christian,120027567,153.19900885555555,-27.72489776666667
place_of_worship,Mormon,The Church Of Jesus Christ Of Latter-Day Saints,Christian,120406664,145.13817206000002,-38.15305224
place_of_worship,Christian,Faith Horizon Church,Christian,121548482,116.03667970666669,-31.892500560000006
place_of_worship,Unknown,Act Jewish Community,Jewish,121558124,149.12851069090908,-35.314124290909085
place_of_worship,Pentecostal,Centro Centre,Christian,121868342,153.1928556777778,-27.737087755555557
place_of_worship,Salvation Army,Salvation Army Community Church,Christian,122250994,115.79138622727272,-32.09099755454545
place_of_worship,Pentecostal,Isee Church,Christian,123558582,153.01787837777778,-27.478631844444447
place_of_worship,Roman Catholic,Sacred Heart Church,Christian,124053105,150.89810255833333,-34.42760071666667
place_of_worship,Anglican,Fairy Meadow Anglican Church,Christian,124965322,150.89348113333332,-34.38821618666666
place_of_worship,Roman Catholic,St Columbkille'S Catholic Church,Christian,124965421,150.8976568375,-34.3675163875
place_of_worship,Catholic,St John Vianney Co-Cathedral,Christian,124965457,150.8917921769231,-34.39781091538462
place_of_worship,Unknown,Bread Of Life Christian Church,Christian,125598894,151.08818234444445,-33.86487315555556
place_of_worship,Unknown,Ballarat Christian Fellowship,Christian,126475429,143.8532956,-37.559456499999996
place_of_worship,Catholic,St Patrick'S Cathedral,Christian,126475433,143.852362375,-37.56234439166667
place_of_worship,Presbyterian,Saint Andrew'S Church,Christian,126475437,143.8528318,-37.56067984
place_of_worship,Unknown,St. Marys,Christian,126931806,144.22035368333334,-37.06397519444445
place_of_worship,New Apostolic,New Apostolic Church Sydney,Christian,127886650,151.0728487842105,-33.94133827368421
place_of_worship,Catholic,St Augustine'S Catholic Church,Christian,129290968,149.10709039000002,-35.369558024999996
place_of_worship,Theravada Thai Forest Tradition,Jhana Grove Meditation Retreat Centre,Buddhist,130003582,116.01835250625,-32.41082203124999
place_of_worship,Unknown,Wavell Heights United Church,Christian,130005084,153.05005248,-27.39604984
place_of_worship,Unknown,Holy Spirit,Christian,130046274,153.05087328888888,-27.39959498888889
place_of_worship,Unknown,Immanuel Family Church,Christian,131484259,115.92088414615385,-31.86533892307692
place_of_worship,Anglican,Holy Cross,Christian,131879476,115.80765154285713,-31.85136438571428
place_of_worship,Catholic,St Brigid'S,Christian,133269417,116.00425022857142,-31.8857561
place_of_worship,Macedonian Orthodox,Macedonian Orthodox Church,Christian,133582716,153.0459799352941,-27.461278629411762
place_of_worship,Baptist,Salisbury Baptist Church,Christian,133808188,138.6601680777778,-34.77443002222222
place_of_worship,Hillsong,Hillsong Church Epicentre,Christian,134201233,150.9610520142857,-33.73262382857143
place_of_worship,Baptist,Forster District Baptist Church,Christian,139457582,152.5180103857143,-32.1816963
place_of_worship,Uniting,Forster Tuncurry Uniting Church,Christian,139503963,152.5169411,-32.182533
place_of_worship,Unknown,Fremantle Wesley Uniting Church,Christian,142224495,115.74624235454544,-32.05346895454546
place_of_worship,Mormon,The Church Of Jesus Christ Of Latter-Day Saints,Christian,144057031,145.35229272499998,-36.3825275875
place_of_worship,Baptist,Beaudesert Baptist Church,Christian,145548122,152.99882742,-27.987000619999996
place_of_worship,Seventh Day Adventist,Beaudesert Seventh Day Adventist Church,Christian,145548128,152.9990178428571,-27.98643667142857
place_of_worship,Lutheran,Saint Thomas' Lutheran Church,Christian,145548138,152.99881276000002,-27.991347
place_of_worship,Catholic,St Peter'S,Christian,145685744,115.88447603333337,-31.91194166
place_of_worship,Melkite Greek Catholic,Melkite Catholic Church,Christian,146533916,115.87958481818183,-31.923372963636357
place_of_worship,Unknown,Temple David,Jewish,146536967,115.8723719888889,-31.929414800000004
place_of_worship,Uniting,Albert Street Uniting Church,Christian,146577878,153.0237724636364,-27.46773458181818
place_of_worship,Anglican,Saint Bartholomew'S Church,Christian,146798824,115.87862838000001,-31.956163019999998
place_of_worship,Catholic,Saint Mary'S Cathedral,Christian,146999979,115.86652228529414,-31.955420038235296
place_of_worship,Uniting,Wesley Church,Christian,147068709,115.85675598571427,-31.953259242857136
place_of_worship,Uniting,Trinity Church,Christian,147180920,115.85803346153845,-31.954924030769234
place_of_worship,Catholic,St Augustine'S Church,Christian,147291052,138.65008161818184,-34.76455561818182
place_of_worship,Anglican,Saint Alban'S Anglican Church,Christian,147405592,115.86810301666667,-31.9402189
place_of_worship,Unknown,Woolamia Church,Christian,147511199,150.66697263999998,-35.03437749999999
place_of_worship,Anglican,St Peter'S Anglican Church,Christian,147588026,143.84044858,-37.56038032
place_of_worship,Uniting,Ballarat West Uniting Church,Christian,147637773,143.83414956153845,-37.5586614846154
place_of_worship,Uniting,Pleasant Street Uniting Church,Christian,147649234,143.83781837142857,-37.5631472
place_of_worship,Baptist,Pleasant Street Baptist Church,Christian,147668854,143.8371464625,-37.5679920375
place_of_worship,Catholic,Sacred Heart Cathedral,Christian,147844226,151.75410205,-32.92351750625001
place_of_worship,Unknown,The Rock Church,Christian,148020538,153.0345603846154,-27.507648969230768
place_of_worship,Catholic,St Th'R'Se Of The Little Flower Church,Christian,148103985,143.82179683076922,-37.554995992307695
place_of_worship,Baptist,Perth Baptist Church,Christian,148123417,115.86372375384614,-31.950880799999997
place_of_worship,Unknown,Cathedral Of Saint Stephen,Christian,148276861,153.0290011769231,-27.46871883076923
place_of_worship,Anglican,Christ Church St Laurence,Christian,148341693,151.20490346923077,-33.88205092307692
place_of_worship,Nondenominational,Metrochurch,Christian,148360784,115.86379137142856,-31.94842781428571
place_of_worship,Lutheran,Saint Johns Lutheran Church Northbridge,Christian,148868430,115.86234262000002,-31.947831810000004
place_of_worship,Anglican,St. Martin'S Anglican,Christian,148936203,145.35417419473686,-37.926148484210536
place_of_worship,Catholic,Saint Brigid'S,Christian,149620004,115.85324091111111,-31.944156055555556
place_of_worship,Russian Orthodox,The Russian Orthodox Most Holy Mother Of God Cathedral (And School),Christian,149818793,144.98090203333334,-37.76244927777778
place_of_worship,Catholic,The Catholic Diocese Of The Australian Defence Force,Christian,149980592,149.1569063,-35.28741559090909
place_of_worship,Anglican,St. Paul'S Church Bakery Hill,Christian,150013415,143.86652442307692,-37.56337865384615
place_of_worship,Unknown,Perth Mosque,Muslim,150558747,115.86232286111112,-31.943541533333335
place_of_worship,Unknown,St John The Divine,Christian,150676167,115.86770004285714,-31.945778528571427
place_of_worship,Salvation Army,Salvation Army Gungahlin,Christian,151011664,149.13306683333334,-35.187898383333334
place_of_worship,Uniting,Uniting Church,Christian,151317109,146.08786745555557,-37.056556244444444
place_of_worship,Uniting,Lara Uniting Church,Christian,151484413,144.39673542857142,-38.02214352857144
place_of_worship,Anglican,Garrison Church,Christian,151980971,151.2056857285714,-33.858428928571435
place_of_worship,Roman Catholic,St Brigid'S Church,Christian,152423838,151.20372942,-33.858657019999995
place_of_worship,Anglican,St John'S Anglican Church,Christian,153188855,143.85945414285715,-37.54802445
place_of_worship,Anglican,St John'S Hall,Christian,153188913,143.85988402222222,-37.547941755555556
place_of_worship,Unknown,Uniting Church,Christian,153205907,143.86079215384615,-37.550546476923074
place_of_worship,Presbyterian,Scots Presbyterian Church And Hall,Christian,153206997,143.85914254,-37.552157799999996
place_of_worship,Greek Orthodox,Greek Orthodox Church Of Evangelismos,Christian,153520326,115.85220258181816,-31.940263527272727
place_of_worship,Catholic,Saint Patricks Cathedral,Christian,155809136,144.9765707457143,-37.80997456571428
place_of_worship,Catholic,St Columba'S,Christian,156106507,143.86011334999998,-37.545274621428575
place_of_worship,Catholic,St Joseph'S Subiaco,Christian,156244762,115.82516865384615,-31.942945269230766
place_of_worship,Unknown,Faber Centre Of Ignatian Spirituality,Christian,156412902,152.96942125,-27.4665814125
place_of_worship,Roman Catholic,Holy Spirit Church,Christian,156577262,151.38065821764707,-33.46474831764706
place_of_worship,Uniting,Yeronga Uniting Church,Christian,156608295,153.01426234444443,-27.5157594
place_of_worship,Unknown,Auburn Gallipoli Mosque,Muslim,156808623,151.03605193333334,-33.85233905555556
place_of_worship,Uniting,Uniting Church Swan View,Christian,157554879,116.05020281666667,-31.88935628333334
place_of_worship,Catholic,Holy Family Catholic Church,Christian,157867538,144.83229741999997,-38.37271484
place_of_worship,Unknown,Gateway Family Church,Christian,158466705,145.14006037333334,-38.11109546
place_of_worship,Unknown,Destiny Christian Centre,Christian,158582962,116.01202202222223,-31.874314000000002
place_of_worship,Unknown,Burnie City Church,Christian,158891674,145.90418564,-41.05046536
place_of_worship,Church Of Christ,Salisbury East Church Of Christ,Christian,159200263,138.6701910333333,-34.779461516666665
place_of_worship,Pentecostal,Bayside Church,Christian,159431960,145.1656743375,-38.10585143750001
place_of_worship,Seventh Day Adventist,College Church,Christian,160909395,151.46106437619048,-33.08590237142857
place_of_worship,Catholic,Our Lady Of Lourdes,Christian,165181974,151.12681898750003,-33.9269219625
place_of_worship,Anglican,Saint George'S Church,Christian,167318579,145.90458240624997,-41.05239469375
place_of_worship,Unknown,Canberra Christian Life Centre,Christian,168661280,149.03076956153848,-35.20309324871794
place_of_worship,Catholic,St. John Vianney'S Catholic Church,Christian,169347344,149.05567380000002,-35.35112362222222
place_of_worship,Pentecostal,Calvary Church,Christian,169409606,149.07909519999995,-35.35100518666666
place_of_worship,Unknown,Inmar,Christian,169416432,132.70668128,-27.003697980000005
place_of_worship,Presbyterian,Weston Creek Presbyterian Church,Christian,169568844,149.05369993333335,-35.34073314444444
place_of_worship,Presbyterian,Cheltenham Presbyterian Church,Christian,170536749,145.05483094615386,-37.96562099230769
place_of_worship,Lutheran,Lutheran Church Centre,Christian,170999500,145.88171433333332,-41.05737643333334
place_of_worship,Catholic,St Joseph'S Catholic Church,Christian,171033461,145.20992034444444,-17.139010533333334
place_of_worship,Pentecostal,Hope Bathurst,Christian,172307190,149.598799625,-33.4061723
place_of_worship,Unknown,Sutton Grange Uniting Church,Christian,172481826,144.35785374000002,-36.98759086
place_of_worship,Baptist,Newtown Baptist Church,Christian,172735167,151.1805948,-33.89505554
place_of_worship,Anglican,St Stephen'S Anglican Church,Christian,172735168,151.18010978461538,-33.89451395384615
place_of_worship,Anglican,Saint George'S Anglican Church,Christian,172806141,147.33222113076923,-42.89141688461538
place_of_worship,Unknown,Saint Agnes,Christian,173023079,152.90932224705887,-31.431904811764706
place_of_worship,Roman Catholic,St Joseph'S,Christian,173101969,147.25041906923076,-37.45989723076923
place_of_worship,Uniting,Uniting Church,Christian,173790247,143.88552736666665,-37.651286866666666
place_of_worship,Unknown,Suncoast Christian Church,Christian,174060568,152.976359275,-26.666088887500003
place_of_worship,Salvation Army,The Salvation Army,Christian,174075087,150.67387564285715,-33.78301388571428
place_of_worship,Anglican,Church Of England,Christian,174402331,139.9829054,-20.7771662
place_of_worship,Catholic,Roman Catholic Church,Christian,174402335,139.9814836,-20.774102572727273
place_of_worship,Catholic,Padre Pio Parish Glenmore Park,Christian,174457345,150.67242728000002,-33.78801498
place_of_worship,Anglican,Glenmore Park Anglican Church,Christian,174613884,150.67278448947368,-33.78578629473684
place_of_worship,Anglican,All Saints Anglican,Christian,174618070,151.15813922,-33.895618840000004
place_of_worship,Unknown,Wesleyan Methodist Church,Christian,175162933,143.8663757,-37.57798313333333
place_of_worship,Anglican,Harrington Community Church,Christian,175386537,152.66268530476194,-31.881287099999998
place_of_worship,Anglican,St. Alban'S Community Anglican Church,Christian,175831785,144.32526008000002,-38.12922092
place_of_worship,Uniting,Western Heights Uniting Church,Christian,175831790,144.32671558571428,-38.13234917142857
place_of_worship,Lutheran,Good Shepherd Lutheran Church,Christian,176613384,138.66691179999998,-34.82888208
place_of_worship,Baptist,Northside Baptist Church,Christian,176647439,138.6611761,-34.83343232
place_of_worship,Uniting,Para Vista Uniting Church,Christian,176647443,138.6616443,-34.83399682857143
place_of_worship,Seventh Day Adventist,Para Vista Seventh Day Adventist Church,Christian,176661244,138.6626339,-34.83384136000001
place_of_worship,Baptist,South Pine Community Church,Christian,177396688,152.96015458000002,-27.335214119999996
place_of_worship,Catholic,Saint Patrick'S Church,Christian,177931462,143.04007318333333,-22.385668733333333
place_of_worship,Unknown,Life Ministry Centre,Christian,178592924,145.3022709916667,-37.76299291666667
place_of_worship,Seventh Day Adventist,Avondale Memorial Church,Christian,178952743,151.45468929166665,-33.077480291666674
place_of_worship,Anglican,St Peter'S Cathedral,Christian,181219964,138.59801405333334,-34.91272006
place_of_worship,Catholic,Parish Of Holy Spirit,Christian,181548740,144.33468357142857,-38.13508081428572
place_of_worship,Unknown,Sukyo Mahikari Australia-Oceania Regional Headquarters,New Religion,181722880,149.04891149999997,-35.330060714285715
place_of_worship,Unknown,Act Bah' Centre,Bahai,181733277,149.06001245555555,-35.32428873333333
place_of_worship,Seventh Day Adventist,Lakeside Adventist Church,Christian,182490689,151.52594638333335,-33.11140531666666
place_of_worship,Seventh Day Adventist,Hillview Sda Church,Christian,182490690,151.4756965857143,-33.10417042857143
place_of_worship,Unknown,Jesus The Annointed One,Christian,183679625,138.51961166153848,-34.851597053846156
place_of_worship,Latter Day Saints,Karawatha Chapel Of The Church Of Jesus Christ Of Latter-Day Saints,Christian,183963485,153.0866896206896,-27.617747255172414
place_of_worship,Pentecostal,Calvary Christian Church,Christian,183970259,153.0455197,-26.709548260000002
place_of_worship,Unknown,Bull Creek Church,Christian,184553168,115.87294456,-32.057033759999996
place_of_worship,Uniting,Saint Andrews,Christian,185028159,153.0274617,-27.465515582352943
place_of_worship,Anglican,All Saints' Wickham Terrace,Christian,185930981,153.02805707777782,-27.46447511111111
place_of_worship,Lutheran,Saint Andrews,Christian,185931257,153.02809581333332,-27.464077780000004
place_of_worship,Anglican,St James Anglican Church Wyong,Christian,186129301,151.42648089230772,-33.28796131153845
place_of_worship,Unknown,Christ The Redeemer Mausoleum,Christian,186254033,149.09348522799996,-35.344113128000004
place_of_worship,Unknown,Living Word Church,Christian,186630443,153.12653088000002,-27.6172888
place_of_worship,Christian And Missionary Alliance,Brisbane Chinese Alliance Church,Christian,186718588,153.12159984,-27.593252919999998
place_of_worship,Catholic,St Marys,Christian,186836466,138.50573141666666,-34.8462769
place_of_worship,Uniting,St Ninian'S Uniting Church,Christian,186854214,149.12798221111112,-35.24820817222221
place_of_worship,Presbyterian,St Andrews Presbyterian Church,Christian,187185957,138.59732652,-34.906846619999996
place_of_worship,Unknown,Wesley Uniting Church,Christian,187920215,144.96808647692308,-37.809981823076924
place_of_worship,Catholic,St Therese'S Church,Christian,188282264,144.9093994,-37.75107684285714
place_of_worship,Uniting,Ashgrove West Uniting Church,Christian,188552358,152.97726758125,-27.448475818749994
place_of_worship,Anglican,St Peter'S Eastern Hill,Christian,188589509,144.97516865999998,-37.80978955333334
place_of_worship,Catholic,Kutjungka Catholic Church,Christian,189151675,127.98486086,-20.14365142
place_of_worship,Roman Catholic,Sacred Heart Catholic Church,Christian,189334532,147.53531786,-34.4460751
place_of_worship,Unknown,Church Of Christ,Christian,189779509,153.03023128888887,-27.462835277777778
place_of_worship,Presbyterian,St Pauls Presbyterian Church,Christian,189961028,151.59549346,-30.98177402
place_of_worship,Catholic,St Patricks Catholic Church,Christian,189961030,151.59122986,-30.98220192
place_of_worship,Unknown,St Martin'S Community Church,Christian,190010031,144.98670280000002,-37.80118795
place_of_worship,Anglican,All Souls,Christian,190370689,149.04128276,-35.35562618
place_of_worship,Unknown,Woden Valley Alliance Church,Christian,190370997,149.05668015555557,-35.34996584444444
place_of_worship,Christ Scientist,"First Church Of Christ, Scientist",Christian,190577890,144.9706521,-37.83037915
place_of_worship,Unknown,Church,Christian,191060888,118.68516495454547,-26.128420263636368
place_of_worship,Anglican,St Mark'S Anglican Church,Christian,191185962,152.03457093333333,-28.21613923333333
place_of_worship,Unknown,Clovercrest Baptist Church,Christian,192837126,138.68136738181818,-34.81855133636363
place_of_worship,Unknown,Assemblies Of God,Christian,192837127,138.67856313888893,-34.818582977777766
place_of_worship,Catholic,St Finbarr'S Catholic Church,Christian,192854399,144.26954826000002,-26.61617288
place_of_worship,Unknown,St Mathews,Christian,192854406,144.26873924,-26.615671159999998
place_of_worship,Uniting,Glen Iris Road Uniting Church,Christian,193423386,145.06553787812499,-37.86072171875
place_of_worship,Baptist,Woodvale Baptist,Christian,193647854,115.80313778571428,-31.7894373
place_of_worship,Unknown,The White House Community Church,Christian,194066237,115.94093751333331,-32.03077416666667
place_of_worship,Presbyterian,Geelong West Presbyterian Church,Christian,194640554,144.3483171625,-38.138240825
place_of_worship,Catholic,Immaculate Conception Church,Christian,195846525,145.03509445333336,-37.82210236666666
place_of_worship,Unknown,Church,Christian,196264478,121.77949266,-18.6843765
place_of_worship,Unknown,Chapel,Christian,196468543,122.66650130000001,-16.98101568
place_of_worship,Catholic,Saint Patricks,Christian,196810000,151.10763454,-33.846391839999995
place_of_worship,Seventh Day Adventist,Seventh-Day Adventist Church,Christian,196816944,149.09796260000002,-35.355953119999995
place_of_worship,Unknown,Vishu Shiva Mandir,Hindu,196821330,149.09824134444446,-35.36185051111111
place_of_worship,Unknown,New Apostolic Church,Christian,196821738,149.09781152,-35.35444244
place_of_worship,Anglican,St. Gabriel'S,Christian,197472402,153.1080658,-27.50213898
place_of_worship,Unknown,St George'S,Christian,198590856,149.0882516727273,-35.36487561818182
place_of_worship,Unknown,Reformed Church Of Canberra,Christian,199127765,149.03749348000002,-35.34743772
place_of_worship,Anglican,St Luke'S Anglican Church,Christian,199132077,144.96111746923077,-37.83250854615385
place_of_worship,Unknown,St Johns Uniting Church,Christian,199466145,146.55081517222226,-34.74387815000001
place_of_worship,Anglican,Saint Phillip'S,Christian,200240098,153.03686206153847,-27.501663753846156
place_of_worship,Presbyterian,Saint John'S,Christian,200240996,153.03665670000004,-27.502850059999997
place_of_worship,Church Of Christ,Warnbro Community Church,Christian,200272148,115.75907211818183,-32.34234999090909
place_of_worship,Catholic,St Judes Church,Christian,200700056,149.05075923333334,-35.33494822222222
place_of_worship,Anglican,St Peters,Christian,201216123,149.05380534,-35.342706719999995
place_of_worship,Unknown,Australia Buddhist Bliss Culture Mission,Buddhist,201296660,115.89940804166669,-32.0575342
place_of_worship,Baptist,Willetton Christian Church,Christian,201296661,115.89810006799999,-32.058405551999996
place_of_worship,Jehovahs Witness,Kingdom Hall Of Jehovah'S Witnesses,Christian,201296662,115.89720587142857,-32.05914565714286
place_of_worship,Pentecostal,Kingdomcity (Canning Vale Campus),Christian,202133051,115.90768579411764,-32.0820126
place_of_worship,Anglican,Saint David'S Anglican Church,Christian,202661530,115.83697746666667,-32.02086847777778
place_of_worship,Anglican,St Lukes Anglican Church,Christian,203087795,149.09974772222222,-35.31523655555556
place_of_worship,Protestant,Livingston Seventh-Day Adventist Church,Christian,203341403,115.91931501428573,-32.086988
place_of_worship,Greek Orthodox,Church Of The Holy Annunciation,Christian,203540674,144.97812791818183,-37.80880591818182
place_of_worship,Pentecostal,Toowoomba City Church,Christian,203889352,151.95639073636363,-27.557826963636366
place_of_worship,Christian,Crossway Baptist Church,Christian,204158659,145.1676631883334,-37.85925320166666
place_of_worship,Anglican,St Paul'S Anglican Church Chatswood,Christian,205144466,151.17717460666668,-33.795412760000005
place_of_worship,Uniting,Uniting Church Of St. James,Christian,205297211,149.0836351833333,-35.32451389166667
place_of_worship,Unknown,Lyons Church Of Christ,Christian,205378316,149.08216075238093,-35.33930776190476
place_of_worship,Anglican,St Mary In The Valley,Christian,205762502,149.1146066222222,-35.43589720555556
place_of_worship,Anglican,Christ Church,Christian,205883367,150.85755582000004,-34.67329269
place_of_worship,Unknown,Lao Buddhist Community Centre,Buddhist,206090223,149.06849575555555,-35.39562958888889
place_of_worship,Anglican,St Stephens Anglican Church,Christian,206099264,149.05998238333333,-35.379098258333336
place_of_worship,Anglican,Anglican Church Of The Good Shepherd,Christian,206221368,149.08395351000001,-35.324779649999996
place_of_worship,Baptist,Willetton Bible Baptist Church,Christian,206611020,115.89372768000001,-32.0399493
place_of_worship,Catholic,Our Lady Of Dolours,Christian,206804334,151.18415244,-33.79414096000001
place_of_worship,Roman Catholic,Saint Brigids Church,Christian,206916671,145.08431234545458,-38.00421768636364
place_of_worship,Unknown,St Mark'S Anglican Church,Christian,207535961,147.37131946428573,-42.87533917142857
place_of_worship,Unknown,Corpus Christi Catholic Church,Christian,207836314,147.37079277647058,-42.871095123529415
place_of_worship,Unknown,St Johns,Christian,207851495,147.71666036000002,-42.6084545
place_of_worship,Unknown,Outdoor Chapel,Christian,209288396,149.13814044615384,-35.30554780769231
place_of_worship,Presbyterian,Church Of Saint Andrew,Christian,209490537,149.12784010000001,-35.31194949
place_of_worship,Presbyterian,Presbyterian Church Of Saint Andrew,Christian,209490539,149.12772676,-35.31196894
place_of_worship,Catholic,Saint Michaels Parish,Christian,210541177,145.08350112307693,-37.86437174615385
place_of_worship,Uniting,Ashburton Uniting,Christian,210543920,145.08111955384618,-37.864512161538464
place_of_worship,Lutheran,Nobby Holy Trinity Lutheran Church,Christian,211128038,151.90389851428571,-27.85917292857143
place_of_worship,Baptist,Ashburton Baptist Church,Christian,211250274,145.07898919545457,-37.862208381818185
place_of_worship,Lutheran,St Peters Memorial,Christian,212098513,149.13721853750002,-35.281425325
place_of_worship,Apostolic,Apostolic Church,Christian,212255204,153.03889638461536,-27.50188833076923
place_of_worship,Catholic,St Monicas Catholic Church,Christian,212453266,147.24453855714287,-42.809043828571426
place_of_worship,Anglican,St Pauls,Christian,214189331,138.50255728,-34.845340560000004
place_of_worship,Unknown,Sri Lanka Buddhist Vihara,Buddhist,214927528,149.06938502222224,-35.39649612222222
place_of_worship,Lutheran,Immanuel Community Church,Christian,214962187,149.08169435555556,-35.34356919444445
place_of_worship,Catholic,St Laurence,Christian,216498724,138.58591573333334,-34.90643058888889
place_of_worship,Anglican,Christ The King,Christian,216623672,115.90031767999999,-32.04740324
place_of_worship,Unknown,Al Khalil Mosque,Muslim,217511468,138.53801386,-34.868536299999995
place_of_worship,Unknown,Zhu-Lin,Buddhist,218080095,138.53759255999998,-34.8430384
place_of_worship,Spiritualist,St John'S Spiritual Church,Christian,218272076,138.501569,-34.84679858
place_of_worship,Unknown,Church Of All Nations,Christian,218893227,144.96902491666665,-37.795730975
place_of_worship,Catholic,Church Of The Apostles,Christian,219107786,147.1338088923077,-41.4427705076923
place_of_worship,Unknown,Lakeside Chapel,Christian,219111291,147.00609372000002,-41.34577255999999
place_of_worship,Unknown,St. James Church,Christian,219117807,147.16711420769232,-41.49013326923077
place_of_worship,Orthodox,St Constantine And Helen Goodwood,Christian,219227455,138.58979062,-34.950619059999994
place_of_worship,Anglican,Saint George'S Cathedral,Christian,219386985,115.8611990875,-31.95570048333333
place_of_worship,Baptist,North Adelaide Baptist Church,Christian,219642768,138.59444016,-34.90591298
place_of_worship,Unknown,Pilgrim Uniting,Christian,219644118,138.60090305714283,-34.926669007142856
place_of_worship,Lutheran,Immanuel Lutheran Church,Christian,219905915,138.59554064,-34.907755630000004
place_of_worship,Baptist,Hughes Baptist Church,Christian,220316434,149.09081041428573,-35.332167528571425
place_of_worship,Catholic,Saint Peter And Paul Catholic Church,Christian,220408578,149.0934079230769,-35.3384907
place_of_worship,Baptist,Canberra Baptist Church,Christian,220589428,149.13741009999998,-35.31670097692307
place_of_worship,Orthodox,Saint Nicholas,Christian,220589587,149.14186692083334,-35.312176504166665
place_of_worship,Catholic,St Christopher'S Cathedral,Christian,220590159,149.13242522,-35.31887629333334
place_of_worship,Anglican,Christ Church,Christian,220904867,138.5932299,-34.910354135714286
place_of_worship,Greek Orthodox,Saint Nektarios,Christian,221920940,144.9616472777778,-37.706044977777786
place_of_worship,Evangelical,Evangelical Free Church Of Australia,Christian,222064389,151.18772312857143,-33.76604569999999
place_of_worship,Unknown,St Martin'S Chapel,Christian,222764201,144.9707617111111,-37.828064133333335
place_of_worship,Lutheran,German Lutheran Trinity Church,Christian,222885166,144.97579815454543,-37.811008
place_of_worship,Catholic,Saint Josephs,Christian,223101765,144.39530882,-36.811776740000006
place_of_worship,Anglican,Saint Linus Church,Christian,223283985,144.95894938,-37.72176124
place_of_worship,Unknown,Melbourne Unitarian Peace Memorial Church,Unitarian Universalist,223480257,144.98469065714286,-37.81144581428571
place_of_worship,Unknown,Melbourne City Synagogue,Jewish,223488090,144.9742323,-37.809046716666664
place_of_worship,Ukrainian Orthodox,Ukrainian Orthodox Centre,Christian,223617427,149.1269238352941,-35.27405701764706
place_of_worship,Quaker,Friends' Meeting House,Christian,223618200,149.12504423333334,-35.26649641111111
place_of_worship,Anglican,St Alban'S Anglican Church,Christian,223940210,151.17001271249998,-33.7757273375
place_of_worship,Roman Catholic,St Mary'S Catholic Church,Christian,224020616,121.47411905333333,-30.743642533333336
place_of_worship,Anglican,St John'S Anglican Church,Christian,224020619,121.47297668571427,-30.74443822857143
place_of_worship,Uniting,Pymble Chapel Uniting Church,Christian,224362929,151.1504882857143,-33.744447657142864
place_of_worship,Jehovahs Witness,Kingdom Hall,Christian,224938090,115.7896429875,-32.0883071375
place_of_worship,Unknown,Society Of Christ,Christian,225066045,149.1479407,-35.33961608
place_of_worship,Unknown,Scots Presbyterian Church,Christian,225638053,115.74957585555558,-32.05636368888889
place_of_worship,Catholic,St Monica'S,Christian,225791897,144.92148853636365,-37.75977379090909
place_of_worship,Anglican,St. Matthews Anglican Church,Christian,225878942,150.8115626875,-33.609048720833336
place_of_worship,Anglican,St Philip'S Anglican Church,Christian,226713138,144.99299574761903,-37.80315885238095
place_of_worship,Anglican,St James,Christian,226836486,151.1142721,-33.886759676923084
place_of_worship,Swedenborgian,New Temple Church,Christian,227077476,144.97685504,-37.80947332
place_of_worship,Anglican,Holy Trinity Anglican Church,Christian,227326092,153.03119827826086,-27.48810987826087
place_of_worship,Anglican,All Saints Cathedral,Christian,227665209,149.57994227647055,-33.417443641176476
place_of_worship,Presbyterian,Bathurst Presbyterian Church,Christian,227665213,149.5800120214286,-33.41615827857144
place_of_worship,Anglican,Church Of England,Christian,227885655,116.15134522000001,-33.36168926
place_of_worship,Catholic,Cathedral Of St Michael And St John,Christian,227958964,149.57722311034485,-33.42000655172414
place_of_worship,Uniting,Bathurst City Uniting Church,Christian,227960096,149.57851822,-33.41978964
place_of_worship,Anglican,St Mark'S Anglican Church,Christian,228468497,144.98192469333335,-37.80158964666667
place_of_worship,Russian Orthodox,Chiurch Of St. John The Baptist,Christian,228908487,149.15128614,-35.325390060000004
place_of_worship,Orthodox,St Nicholas Antiochian Orthodox Church,Christian,229239829,144.9892091333333,-37.81021526666667
place_of_worship,Catholic,St John The Evangelist Church,Christian,229239894,144.9908023333333,-37.81045270666666
place_of_worship,Quaker,Friends' Meeting House,Christian,229736147,138.59774872,-34.912616279999995
place_of_worship,Catholic,St Marys,Christian,229857386,138.60466532222222,-34.90720483333333
place_of_worship,Baptist,Providence Grace,Christian,229862415,138.60617554,-34.909555620000006
place_of_worship,Anglican,St Cyprian'S Church,Christian,229880089,138.60837748571427,-34.905872571428574
place_of_worship,Anglican,Anglican Church,Christian,229989875,148.02796475,-34.63824918333333
place_of_worship,Catholic,Sacred Heart,Christian,229990049,148.03158359,-34.63499554
place_of_worship,Pentecostal,New Life City Church,Christian,230220227,149.08209832000003,-33.26721458
place_of_worship,Unknown,St Helens Catholic Church,Christian,230833453,148.76652444,-20.900186620000003
place_of_worship,Jehovahs Witness,Jehovahs Witness,Christian,230855296,138.5051413285714,-34.863164242857145
place_of_worship,Unknown,Avalokitesvara Yuan Tong Monastery,Buddhist,230865324,144.83227478,-37.78526288
place_of_worship,Pentecostal,Assemblies Of God,Christian,230955670,138.66860975,-34.869996416666666
place_of_worship,Greek Orthodox,Parish Of Saint Vasilios,Christian,231306551,144.96379209999998,-37.765199054545455
place_of_worship,Anglican,St Michael'S Anglican Cathedral,Christian,231338072,150.8954911130435,-34.4236884652174
place_of_worship,Uniting,Wesley Uniting Church,Christian,231518858,150.89642645714284,-34.42519692857143
place_of_worship,Uniting,Wedderburn Uniting Church,Christian,231537262,143.61274252222222,-36.41916237777778
place_of_worship,Greek Orthodox,Church Of The Transfiguration,Christian,232037751,145.02945176666665,-37.6787732
place_of_worship,Greek Orthodox,Church Of The Transfiguration,Christian,232037752,145.02824235714286,-37.67958122857143
place_of_worship,Unknown,Dromana Uniting Church,Christian,232329102,144.9620543076923,-38.33449678461539
place_of_worship,Unknown,Baitul Huda,Muslim,232448583,150.84272215789474,-33.7257780368421
place_of_worship,Baptist,Wodonga Baptist Church,Christian,232782456,146.86580431250002,-36.133149675
place_of_worship,Catholic,St Patrick'S Basilica,Christian,232854773,115.75006691818184,-32.050932227272725
place_of_worship,Anglican,Anglican Church,Christian,233081246,143.34949799499995,-36.269894259999994
place_of_worship,Anglican,St Pauls Anglican Church,Christian,233698376,138.51805015999997,-34.59626556
place_of_worship,Catholic,Rheinberger Centre & St Peter Chanel'S Church,Christian,233924542,149.10455538333335,-35.30998423333333
place_of_worship,Unknown,Canberra Mosque,Muslim,233925180,149.11217100000002,-35.30454518333334
place_of_worship,Catholic,Holy Spirit Catholic Church,Christian,233929712,130.8853679,-12.3718539375
place_of_worship,Unknown,Eternity Church,Christian,234374584,149.055945225,-35.3725907375
place_of_worship,Catholic,All Saints,Christian,234797338,137.76704306666667,-32.49097702
place_of_worship,Uniting Church In Australia,Coburg Uniting Church,Christian,234999188,144.9643670142857,-37.74324158571428
place_of_worship,Catholic,Saint Oliver Plunkett'S Church,Christian,235145321,144.94184582,-37.731374720000005
place_of_worship,Unknown,Spiritual Church,Christian,235567611,153.02865974,-27.46174586
place_of_worship,Unknown,St Oswald Church,Christian,235901493,138.61817454,-34.942746146666664
place_of_worship,Uniting,Wesley Uniting Church,Christian,236070120,149.13199127142857,-35.313729599999995
place_of_worship,Orthodox,Free Serbian Orthodox Church,Christian,236073734,149.12731949999997,-35.31574511428572
place_of_worship,Anglican,St. Lukes Anglican Church,Christian,237672215,145.19559483333333,-37.835488033333334
place_of_worship,Seventh Day Adventist,Broome Seventh-Day Adventist Church,Christian,237758428,122.21770486666666,-17.966521244444444
place_of_worship,Baptist,Moreland Baptist Church,Christian,237762962,144.94827604000002,-37.75377294
place_of_worship,Uniting,Uniting Church Second Wesleyan Methodist Chapel,Christian,237763461,144.96753747142856,-37.741027585714285
place_of_worship,Unknown,St Andrew'S Presbyterian Church,Christian,237879819,145.00203504285716,-37.71617884285714
place_of_worship,Uniting,Uniting Church Pascoe Vale South,Christian,238022174,144.9378974875,-37.737436925000004
place_of_worship,Presbyterian,Westminster Presbyterian Church Bull Creek,Christian,238531909,115.85721739,-32.05154065
place_of_worship,Lutheran,Berri Zion Lutheran Church,Christian,238688535,140.5996443909091,-34.28291049090909
place_of_worship,Unknown,Faith Community Church,Christian,238748227,115.90072005,-32.055959125
place_of_worship,Unknown,Catholic Church Of Saints John And Paul,Christian,238979258,115.87799235384615,-32.0625942153846
place_of_worship,Catholic,Mary Help Of Christians Parish,Christian,239155320,149.08319726153846,-35.36667414615384
place_of_worship,Indian Orthodox,Saint Mary'S,Christian,239194810,144.97746365999998,-37.74803962
place_of_worship,Unknown,Coburg Mosque,Muslim,239315166,144.97511392,-37.75513878
place_of_worship,Catholic,Our Lady Queen Of Apostles Church,Christian,239736727,115.89437538787878,-32.029842884848485
place_of_worship,Exclusive Brethren,Plymouth Brethren Christian Church,Christian,240338902,115.8856417652174,-32.06724147391304
place_of_worship,Presbyterian,Williamstown Presbyterian Church,Christian,240503856,144.90330271250002,-37.8655019375
place_of_worship,Unknown,Adelaide Hebrew Congregation,Jewish,240742711,138.63090080943394,-34.94473971886792
place_of_worship,Uniting,Darebin North West Uniting Church,Christian,240745999,144.9928633857143,-37.737438728571426
place_of_worship,Catholic,Saint Dominic'S Church,Christian,240891243,115.79125622,-31.894451780000004
place_of_worship,Unknown,Capitaledge Church,Christian,240943325,149.09800832222223,-35.40216556666667
place_of_worship,Lutheran,Saint Luke'S Lutheran Church Parkwood,Christian,240989908,115.90738111875001,-32.05079789999999
place_of_worship,Unknown,Lifestream Christian Fellowship,Christian,241058224,149.09634541000003,-35.401007330000006
place_of_worship,Chaldean Catholic,Our Lady Guardian Of Plants,Christian,241113747,144.96339773999998,-37.679191919999994
place_of_worship,Unknown,Impact Church,Christian,241254418,149.0878534818182,-35.422903190909096
place_of_worship,Unknown,C3 Church,Christian,241255777,149.08751914285713,-35.42134744285714
place_of_worship,Unknown,Canberra Islamic Centre,Muslim,241379729,149.08998983636366,-35.42218088181818
place_of_worship,Unknown,Perth Chinese Christian Church (South Branch),Christian,241418364,115.90693768333335,-32.05125997222222
place_of_worship,Anglican,Saint Andrew'S Church,Christian,241659217,115.88114173571428,-32.034846557142856
place_of_worship,Unknown,Heritage Christian Church,Christian,241868613,132.29765162,-14.46762492
place_of_worship,Unknown,St Joseph Parish,Christian,241868617,132.26525650000002,-14.46289806
place_of_worship,Pentecostal,Go Forth Faith Arena,Christian,241919700,148.30534146666665,-32.93128915555556
place_of_worship,Uniting,Kent Road Congregation,Christian,241936794,144.93709815,-37.7200929625
place_of_worship,Samoan Presbyterian,Saint David'S Presbyterian Church,Christian,241936795,144.94603608,-37.71953568
place_of_worship,Baptist,Riverton Baptist Community Church,Christian,242172048,115.8901069882353,-32.02965933235294
place_of_worship,Catholic,Holy Child Parish (Chapel Of Ease),Christian,242561998,144.92050292727274,-37.65329957272727
place_of_worship,Sunni,Meadow Heights Mosque,Muslim,242562000,144.9205596095238,-37.65199904761904
place_of_worship,Unknown,Broadmeadows Mosque (Cami),Muslim,242710637,144.9416077636364,-37.66855418181819
place_of_worship,Catholic,Catholic Church Wombarra,Christian,242788515,150.95545696,-34.27494218
place_of_worship,Unknown,York Street Church Of Christ,Christian,243027808,143.88060367142856,-37.569349214285715
place_of_worship,Seventh Day Adventist,Riverland Seventh-Day Adventist Church,Christian,243358102,140.5814363,-34.279971322222224
place_of_worship,Uniting,Gladstone Park Uniting Church,Christian,243428130,144.89284017999998,-37.69618804666666
place_of_worship,Catholic,Saint Patricks,Christian,243585627,153.0382998,-27.45775974444445
place_of_worship,Catholic,St John'S Mitcham,Christian,243773502,145.1907692,-37.8173222
place_of_worship,Catholic,St Raphaels Catholic Church,Christian,244784292,138.531668,-32.427075214285715
place_of_worship,Anglican,St. John,Christian,244919664,151.22134323529414,-33.8772474882353
place_of_worship,Catholic,Sacred Heart,Christian,244995134,151.21857158571427,-33.88111792857143
place_of_worship,Churches Of Christ,Iglesia Ni Cristo,Christian,245028224,153.03919465999996,-27.5668731
place_of_worship,Catholic,St. Mary'S Catholic Church,Christian,245059109,151.28627179090913,-33.795201909090906
place_of_worship,Roman Catholic,Saint Monica'S Catholic Church,Christian,245232069,151.00049994,-33.7937798
place_of_worship,Unknown,Back River Chapel,Christian,245618134,147.0331658,-42.7660544
place_of_worship,Unknown,Eric Freak Memorial Chapel,Christian,246072183,138.6194081142857,-34.923271185714285
place_of_worship,Anglican,Holy Trinity,Christian,246128678,145.32461292,-42.15146847999999
place_of_worship,Catholic,Saint Matthew'S Church,Christian,247202760,144.96810832,-37.69751505
place_of_worship,Catholic,Sacred Heart Catholic Church Cabramatta,Christian,247602067,150.9372102333333,-33.89072769999999
place_of_worship,Uniting,Blackwood Uniting Church,Christian,247788841,138.61751488000002,-35.02169231
place_of_worship,Russian Orthodox,Russian Orthodox Church Of St Seraphim,Christian,248410180,153.03169862,-27.48817904
place_of_worship,Anglican,St. David'S Church,Christian,248988705,138.6602898181818,-34.93570548181819
place_of_worship,Anglican,St Matthew'S,Christian,249196533,151.91162205999998,-27.598608419999998
place_of_worship,Christ Scientist,Christian Science Institute,Christian,249334834,151.95532429444444,-27.563652466666667
place_of_worship,Catholic,St Patrick'S Cathedral,Christian,249334967,151.95343867941176,-27.569536344117644
place_of_worship,Anglican,St Luke'S,Christian,249335030,151.95322455909093,-27.565337045454545
place_of_worship,Salvation Army,The Salvation Army,Christian,249335681,151.94313598461537,-27.55831355384616
place_of_worship,Seventh Day Adventist,Seventh-Day Adventist Church,Christian,249503011,150.93958462,-33.893858359999996
place_of_worship,Uniting,Glengowrie Uniting Church,Christian,250492918,138.5297698,-34.98309385
place_of_worship,Anglican,St Peters Church,Christian,250691728,138.51473470833332,-34.97848953333334
place_of_worship,Unknown,Saint Andrews Uniting Church,Christian,251868613,142.98441466,-36.37217494
place_of_worship,Unknown,"Islamic Centre, West End Mosque",Muslim,251882571,153.01070317999998,-27.481275980000003
place_of_worship,Pentecostal,Dunamis Church,Christian,252855368,153.16531841666668,-27.65765731666667
place_of_worship,Baptist,Rivers Baptist Church,Christian,252993322,152.97475668,-27.28618737
place_of_worship,Catholic,Our Lady Help Of Christians Chapel,Christian,253020342,153.14748755294116,-27.4381851
place_of_worship,Unknown,Sikh Temple,Sikh,253120883,150.97378458333333,-33.80841051666666
place_of_worship,Unknown,Gurudwara Sikh Temple,Sikh,253121338,150.91980225925923,-33.737995159259256
place_of_worship,Unknown,Sikh Temple,Sikh,253122388,150.80265755555558,-33.935189888888885
place_of_worship,Unknown,Sikh Temple,Sikh,253122776,150.8417966,-34.025397240000004
place_of_worship,Unknown,Sikh Temple,Sikh,253123029,150.67382505999998,-33.760721579999995
place_of_worship,Baptist,Mortdale Oatley Baptist Church,Christian,253574242,151.07692403333334,-33.97446361666667
place_of_worship,Russian Orthodox,Russian Orthodox,Christian,253923902,138.59030763333337,-34.942110904166675
place_of_worship,International Church Of The Foursquare Gospel,Katanning Foursquare Church,Christian,255451825,117.55614820000001,-33.68488968
place_of_worship,Catholic,St Michael'S,Christian,255502540,147.70958916666666,-32.92423477777778
place_of_worship,Catholic,St Pattricks,Christian,255538663,117.54860388,-33.68885232
place_of_worship,Lutheran,Lutheran Church,Christian,255538669,117.5504005,-33.68728962
place_of_worship,Anglican,St Andrews Anglican Church,Christian,255548787,117.55198751666667,-33.689423299999994
place_of_worship,Anglican,Parish Of All Saints South Hobart,Christian,255841214,147.31673264444444,-42.89204535555556
place_of_worship,Anglican,St John'S Anglican Church,Christian,255972318,145.14958432,-37.673770160000004
place_of_worship,Uniting,Golden Grove Uniting Church,Christian,256390743,138.73069012000002,-34.77455327
place_of_worship,Uniting Church,Scots Church,Christian,256787700,138.60524127777774,-34.92156966666667
place_of_worship,Unknown,Perisher Valley Chapel,Christian,257401944,148.41446745714285,-36.404922042857145
place_of_worship,Mormon,The Church Of Jesus Christ Of Latter-Day Saints,Christian,257424370,151.07542476,-34.03849978
place_of_worship,Unknown,Lifegate Church Of Christ,Christian,257740756,145.16731635714288,-37.88976868571428
place_of_worship,Roman Catholic,Our Lady Of The Sacred Heart Catholic Church,Christian,257902424,133.88232096000002,-23.69644648
place_of_worship,Pentecostal,Lighthouse Pentecostal Fellowship,Christian,257908214,133.89942547142857,-23.7009246
place_of_worship,Catholic,Saint Benedicts,Christian,258090606,151.19829336666666,-33.884665483333336
place_of_worship,Unknown,Woorack Church,Christian,258270603,141.99165095555557,-36.14636625555555
place_of_worship,Assemblies Of God,Gateway Church,Christian,258280090,153.12333254545453,-27.502107118181815
place_of_worship,Catholic,St Anthony In The Fields,Christian,258756824,151.22128593076923,-33.689513053846156
place_of_worship,Unknown,Edge Church,Christian,259342540,138.54412409333332,-35.085636046666664
place_of_worship,Catholic,Our Lady Of The Way Catholic Church,Christian,259494343,151.10051795,-34.008268433333335
place_of_worship,Mormon,The Church Of Jesus Christ Of Latter-Day Saints,Christian,259730837,153.2517470043478,-27.524863165217386
place_of_worship,Unknown,St Barnabas' Anglican Church,Christian,260027896,147.12713050000002,-41.39635506666666
place_of_worship,Unknown,Brimbank Church Of Christ,Christian,260054068,144.86450066,-37.73355977999999
place_of_worship,Anglican,St Peter'S Anglican Church,Christian,260222838,151.09737338235294,-33.699083623529404
place_of_worship,Unknown,The Church Of Jesus Christ Of Latter-Day Saints,Christian,260699706,137.54225885384616,-33.015425923076926
place_of_worship,Baptist,Whyalla Baptist Church,Christian,260699710,137.53844018235296,-33.02824340588236
place_of_worship,Unknown,Catholic Parish Of Whyalla St. Teresa'S Church,Christian,260699910,137.5605021875,-33.02766958749999
place_of_worship,Anglican,St Mark'S Anglican Church,Christian,261078464,144.99339461111109,-37.72656814444445
place_of_worship,Unknown,Christ Church Anglican Church,Christian,261225858,138.91958051428568,-34.34282636428572
place_of_worship,Unknown,Light Community Church,Christian,261228706,138.9144204,-34.341590828571434
place_of_worship,Catholic,Immaculate Heart Of Mary,Christian,261333098,151.7495778777778,-32.90868581111111
place_of_worship,Baptist,Molong And District Baptist Church,Christian,261386874,148.8659555222222,-33.08793494444445
place_of_worship,Unknown,Citylife Church,Christian,261835468,145.21461054999997,-37.878202333333334
place_of_worship,Sunni,Algester Mosque,Muslim,262005084,153.0360521,-27.598951059999997
place_of_worship,Catholic,St Martin De Porres,Christian,262494745,144.8609066,-37.75816873333333
place_of_worship,Baptist,Birkdale Baptist Church,Christian,263207817,153.20374085454546,-27.5138319
place_of_worship,Russian Orthodox,Saints Peter And Paul Cathedral,Christian,263326307,151.08892622000002,-33.87525588
place_of_worship,Evangelical,The Chapel,Christian,263788166,151.93225594615384,-27.49882107692308
place_of_worship,Pentecostal,Hope City Church,Christian,263789802,151.94908039999999,-27.569440383333333
place_of_worship,Pentecostal,New Hope Church,Christian,263789951,151.95585134,-27.550481339999997
place_of_worship,Pentecostal,The Project,Christian,263790902,151.94668797272726,-27.488997918181816
place_of_worship,Salvation Army,The Salvation Army Waverley Temple,Christian,263860681,145.1866420888889,-37.877120966666666
place_of_worship,Reformed,Redlands Christian Reformed Church,Christian,264280307,153.25152338,-27.512307659999998
place_of_worship,Lutheran,Concordia Lutheran Church,Christian,264892044,140.56694657500003,-34.455969725
place_of_worship,Lutheran,St Peter'S Lutheran Church,Christian,264892050,140.56770297272726,-34.45323974545454
place_of_worship,Lutheran,Concordia Lutheran Church,Christian,264892067,140.56692236666666,-34.45599571666667
place_of_worship,Lutheran,Old Nangari Church,Christian,265619450,140.87653016666664,-34.490447188888886
place_of_worship,Jehovahs Witness,Jehovahs Witness,Christian,265732055,140.58404023999998,-34.44213162
place_of_worship,Anglican,All Saints Anglican Church,Christian,266318307,144.4915986076923,-38.28018689230768
place_of_worship,Anglican,St Peter'S Anglican Church,Christian,266350662,144.52456452142857,-38.26416531428572
place_of_worship,Unknown,St. James Anglican Church,Christian,266486139,144.57361566000003,-38.16961406
place_of_worship,Unknown,Drysdale Community Church,Christian,266486249,144.54994428571428,-38.17934624285714
place_of_worship,Uniting,Belmont Uniting Church,Christian,266676841,144.34182476875003,-38.173805762499995
place_of_worship,Baptist,Barrabool Hills Baptist Church,Christian,266703224,144.30740246451612,-38.16082911935484
place_of_worship,Salvation Army,Salvation Army,Christian,266724808,144.36813815454545,-38.14882381818182
place_of_worship,Anglican,Christ Church Geelong,Christian,266728208,144.35857447333333,-38.1532307
place_of_worship,Apostolic,Waterfront Christian Church,Christian,266728247,144.35963808000002,-38.145528950000006
place_of_worship,Lutheran,St Johns Lutherian Church,Christian,266728307,144.36112142631578,-38.15386091052631
place_of_worship,Baptist,Mano Baps,Christian,266738941,144.33628543157894,-38.13890499473685
place_of_worship,Catholic,Church Of Saint Peter And Saint Paul,Christian,266739013,144.35594041764708,-38.141252164705875
place_of_worship,Hillsong,Hillsong,Christian,266741275,144.34853295555553,-38.14118903333334
place_of_worship,New Apostolic,New Apostolic Church,Christian,266742909,144.34067671999998,-38.13446338
place_of_worship,Catholic,St John The Evangelist,Christian,266753117,144.35599464615385,-38.1227867076923
place_of_worship,Church Of Christ,Kardinia Church - Geelong North,Christian,266796334,144.3303188066667,-38.114307046666674
place_of_worship,Anglican,Anglican Church Of Saint Andrew,Christian,266815360,144.35914308333335,-38.075358066666666
place_of_worship,Anglican,All Saints Ascot Vale,Christian,267951133,144.90701755714286,-37.779996985714284
place_of_worship,Unknown,Malaga Church Of Christ,Christian,270084930,115.88109692857142,-31.854515714285714
place_of_worship,Unknown,Abbey Church,Christian,272207626,153.02292287999998,-27.07000058
place_of_worship,Unknown,Abbey Church,Christian,272207627,153.0229298714286,-27.07009037142857
place_of_worship,Roman Catholic,St Francis Xavier Cathedral Geraldton,Christian,272648016,114.61183851764707,-28.77735708823529
place_of_worship,Catholic,St John The Baptist,Christian,273892661,116.47457123333331,-31.554269666666666
place_of_worship,Holy Apostolic Catholic Assyrian Church Of The East,Saint Hurmidz Cathedral,Christian,273906787,150.891181425,-33.8714752
place_of_worship,Anglican,St Bart'S Anglican Church,Christian,274456734,151.9791320117647,-27.597052264705887
place_of_worship,Catholic,St Joseph'S Catholic Church,Christian,274722692,151.26154386000002,-27.18448618
place_of_worship,Jehovahs Witness,Kingdom Hall Of Jehovah'S Witnesses,Christian,275433671,148.03609885,-21.9962793875
place_of_worship,Catholic,Catholic Church,Christian,275492557,115.97923918,-31.899653340000004
place_of_worship,Baptist,Calvary Baptist Church,Christian,277234609,145.26854920769227,-37.83140903076923
place_of_worship,Buddhist,Adelaide Sri Lanka Buddhist Vihara,Buddhist,277982833,138.7025570142857,-34.99574984285714
place_of_worship,Quaker,Friends' Meeting House,Christian,277985504,147.31347027500001,-42.86546471666666
place_of_worship,Unknown,The Anglican Parish St Thomas,Christian,278132840,144.92474034615384,-37.76529019230769
place_of_worship,Evangelical,Greek Evangelical Church,Christian,278534329,153.01158628000002,-27.482195
place_of_worship,Pentecostal,New Life Christian Church,Christian,278833628,142.4813341,-38.37116206666666
place_of_worship,Anglican,Anglican Church,Christian,279539302,136.49436864,-33.7046366
place_of_worship,Catholic,St Vincent'S Church Hall,Christian,279709029,148.94856008888888,-33.96740358888889
place_of_worship,Baptist,Emmanuel Baptist Church,Christian,280695487,150.9423035090909,-33.73255335454545
place_of_worship,Unknown,Imam Ali Islamic Centre,Muslim,282486880,144.96496290000002,-37.6979416875
place_of_worship,Anglican,Saint George'S,Christian,283419038,145.00429765454544,-37.71479236363636
place_of_worship,Unknown,New Life Chapel,Christian,284755951,146.9060709727273,-36.12625382727273
place_of_worship,Unknown,Semaphore Uniting Church,Christian,285366928,138.48984767857144,-34.84044346428571
place_of_worship,Unknown,C3 Church,Christian,285679152,147.30769439545455,-42.89300975454545
place_of_worship,Lutheran,Our Saviour'S Lutheran Church,Christian,287037924,145.25700342222223,-37.87663403333334
place_of_worship,Salvation Army,Salvation Army Ringwood Corp,Christian,287038585,145.2277151,-37.821656222222224
place_of_worship,Lutheran,Ringwood Lutheran Church,Christian,287038770,145.22781314285717,-37.82220158571429
place_of_worship,Anglican,St Alban'S,Christian,288012093,150.88697657999995,-32.262556159999995
place_of_worship,Anglican,Brimbank Anglican Church,Christian,288269120,144.85069909999999,-37.72824718
place_of_worship,Anglican,Quakers Hill Anglican Church,Christian,288425903,150.89182646153847,-33.716697884615385
place_of_worship,Baptist,Hallett Cove Baptist Church,Christian,288436481,138.51848702916666,-35.076593916666674
place_of_worship,Lutheran,Hallett Cove Lutheran Church,Christian,288436482,138.51930746666667,-35.07613068571428
place_of_worship,Unknown,Sacred Heart Cathedral,Christian,289172814,144.27408354666665,-36.76000994666666
place_of_worship,Unknown,Wat Buddha Dhamma,Buddhist,289828554,151.08486132692303,-33.32990241923078
place_of_worship,Unknown,Sunshine Mosque,Muslim,290774556,144.8012635,-37.77167896
place_of_worship,Anglican,St David'S Cathedral,Christian,291095573,147.3285236733333,-42.883627993333334
place_of_worship,Catholic,Our Lady Help Of Christians,Christian,291435043,151.0827880666667,-33.77069486666667
place_of_worship,Nondenominational,Huntingdale Christian Church,Christian,291482488,115.9581465142857,-32.07846858571428
place_of_worship,Uniting,Epping Uniting Church,Christian,292420376,151.08420002727271,-33.76905989090909
place_of_worship,Unknown,Mycenter - Multicultural Youth Centre,Muslim,292838952,144.92366045714286,-37.67708022857143
place_of_worship,Catholic,St Thomas Catholic Church,Christian,293368243,151.20031578571428,-33.79618982857143
place_of_worship,Anglican,St Stephen'S Anglican Church,Christian,293949621,144.9981195727273,-37.82245598181818
place_of_worship,Catholic,St Ignatius' Church,Christian,293949828,144.99787193600002,-37.821853604
place_of_worship,Salvation Army,Ballarat Community Church,Christian,294654359,143.86905555263158,-37.56715315263158
place_of_worship,Unknown,Chinese Temple,Buddhist,294992979,143.86695138,-37.576088719999994
place_of_worship,Pentecostal,Antioch House,Christian,295041842,145.15824296,-38.09665441999999
place_of_worship,Anglican,St Mary'S Church,Christian,295995376,146.91007378,-41.52159616
place_of_worship,Unknown,The Salvation Army Carrum Downs Community Church,Christian,296130022,145.17267936666667,-38.10057245833333
place_of_worship,Unknown,Uniting Church Bulla,Christian,296377102,144.82858136,-37.64273648
place_of_worship,Catholic,St Peters Church,Christian,296404218,152.95173360588234,-27.080908441176472
place_of_worship,Protestant,Menai-Illawong Uniting Church,Christian,296957421,151.04221124,-33.997951
place_of_worship,Unknown,Ridgley Gospel Hall,Christian,296974597,145.83492488000002,-41.14596994
place_of_worship,Catholic,St Joseph'S Catholic Church,Christian,298234573,142.4827305642857,-38.379785842857146
place_of_worship,Reformed,Free Reformed Church Of Launceston,Christian,298457209,147.14410789999997,-41.4479094
place_of_worship,Seventh Day Adventist,Seventh-Day Adventist Community Church,Christian,298965317,146.8678240375,-36.11620144999999
place_of_worship,Presbyterian,Evangelical Presbyterian Church Of Australia,Christian,299398181,147.1633193,-41.436413200000004
place_of_worship,Anglican,St. Andrew'S Church,Christian,299565309,152.37593999999999,-27.08994348
place_of_worship,Protestant,Ascot Vale Uniting Church,Christian,299658662,144.9221777846154,-37.77203696153846
place_of_worship,Mormon,The Church Of Jesus Christ Of Latter-Day Saints,Christian,299850633,151.66088434285714,-30.498396442857143
place_of_worship,Unknown,St Alpius,Christian,300677135,143.87197137692309,-37.56223778461538
place_of_worship,Anglican,North Ryde Anglican Church,Christian,301070825,151.12146387777779,-33.79502095555556
place_of_worship,Unknown,Bonnyrigg Mosque,Muslim,302549354,150.89048263529415,-33.884132523529416
place_of_worship,Unknown,Bannaby,Christian,302721005,149.99307100000001,-34.44307507272728
place_of_worship,Anglican,St Andrews,Christian,302857006,151.21329472307693,-29.957837123076924
place_of_worship,Unknown,Cairns Mosque,Muslim,302909764,145.76350674,-16.91650996
place_of_worship,Protestant,Buxton Community Church,Christian,303121499,150.53416896,-34.2536192
place_of_worship,Anglican,St John The Evangelist,Christian,303278944,151.15270675555556,-33.757270199999994
place_of_worship,Catholic,"St Joseph'S Catholic Church, Corinda",Christian,303316493,152.98239925555558,-27.537555911111113
place_of_worship,Catholic,Christ The King Catholic Church,Christian,303318243,152.97688454000001,-27.5192678
place_of_worship,Unknown,Real Hope Church,Christian,303951861,148.9482132,-32.5704233
place_of_worship,Anglican,St Philip'S Anglican Church,Christian,303951912,149.08984465999998,-33.2247031
place_of_worship,Orthodox,Macedonian Bulgarian Eastern Orthodox Church,Christian,304374398,144.99822339999997,-37.77577957142857
place_of_worship,Unknown,"The International Buddhist Center, Darwin",Buddhist,304483316,130.90452166666668,-12.379218944444442
place_of_worship,Catholic,St. Josephs Church,Christian,304648425,144.99680603076925,-37.774505446153846
place_of_worship,Baptist,Hamilton Baptist Church,Christian,306065771,151.74399354000002,-32.92119598
place_of_worship,Seventh Day Adventist,Hamilton Seventh-Day Adventist Church,Christian,306065820,151.744757525,-32.921859250000004
place_of_worship,Unknown,Alford Uniting Church,Christian,306460187,137.8216497153846,-33.815546761538464
place_of_worship,Salvation Army,Menai Salvation Army,Christian,306475698,151.0307742875,-34.0194184
place_of_worship,Lutheran,Bookpurnong Church & Cemetery,Christian,306822052,140.60656092857144,-34.32770368571429
place_of_worship,Unknown,Brimbank City Community Church,Christian,307543383,144.77822655,-37.70814315
place_of_worship,Orthodox,St Marys Macedonian Orthodox Church,Christian,308494971,144.77539018,-37.704480280000006
place_of_worship,Christ Scientist,"First Church Of Christ, Scientist, Geelong",Christian,309142668,144.34803540000001,-38.14353465
place_of_worship,Unknown,Church,Christian,309397046,141.79244325714285,-36.36395964285714
place_of_worship,Unknown,Marymount Mercy Centre,Christian,309853401,151.02408909629628,-33.71816636666666
place_of_worship,Baptist,Gladstone Baptist Church,Christian,310446774,151.25682408333333,-23.871059066666664
place_of_worship,Anglican,Saint John'S,Christian,310602306,117.8830905,-35.02544187058823
place_of_worship,Catholic,St Joseph'S Malvern,Christian,310869383,145.03061194999998,-37.85777263333333
place_of_worship,Salvation Army,Hornsby Corps,Christian,310928500,151.1050336888889,-33.70289638888889
place_of_worship,Anglican,Saint James Anglican Church,Christian,311200877,146.7856763857143,-37.98213012857143
place_of_worship,Catholic,Twelve Apostles Catholic Church,Christian,311513420,152.93974922222225,-27.540783433333335
place_of_worship,Unknown,The Potter'S House Christian Church,Christian,311631793,133.88990093333334,-23.69556498888889
place_of_worship,Lutheran,Myrla Lutheran Church,Christian,311810463,140.32260958,-34.452995720000004
place_of_worship,Unknown,Sri Durga Temple,Hindu,312024332,144.69754921428571,-37.74219125714285
place_of_worship,Unknown,St Lukes Church,Christian,312328945,138.5930967,-34.93271756
place_of_worship,Unknown,Holy Trinity Anglican Church,Christian,313510949,144.06821804444448,-36.99531094444444
place_of_worship,Unknown,St Brigids Catholic Church,Christian,313511069,144.06322052000002,-36.99179887000001
place_of_worship,Orthodox,St Petka Serbian Orthodox Church,Christian,313649049,144.65155771111114,-37.730762411111115
place_of_worship,Christian,The Potter'S House Christian Church,Christian,313771209,144.884853625,-37.8008965625
place_of_worship,Church Of Christ,Toowoomba North Church Of Christ,Christian,313804599,151.95337626,-27.53304868
place_of_worship,Roman Catholic,St Mary'S Cathedral,Christian,314176992,130.838238646875,-12.459115396874997
place_of_worship,Anglican,Christ Church Cathedral,Christian,314177694,130.84531183214287,-12.465841992857142
place_of_worship,Anglican,St John'S Sutherland,Christian,314510713,151.0612347888889,-34.03197708333333
place_of_worship,Catholic,St. Marks Parish,Christian,314523812,152.96837015714283,-27.594055814285714
place_of_worship,Baptist,Baptist Church,Christian,314818776,144.06922048,-36.99492284
place_of_worship,Baptist,Baptist Sunday School,Christian,314818777,144.06933428,-36.99485
place_of_worship,Catholic,St Marks Coptic Catholic Church,Christian,315083241,150.91742244,-33.809298
place_of_worship,Anglican,St John'S Anglican Church,Christian,315565334,153.4499188727273,-28.090477
place_of_worship,Catholic,Sacred Heart Catholic Church,Christian,316566987,116.03445883749997,-34.4465855375
place_of_worship,Uniting,Scots Church,Christian,316657066,117.8839394,-35.02485526
place_of_worship,Anglican,Saint Peters Anglican Church,Christian,316743772,151.58184964,-32.74944754
place_of_worship,Anglican,St John The Baptist Anglican Church,Christian,317719897,146.71288279230768,-42.48498565384615
place_of_worship,Anglican,All Saints Anglican Church,Christian,317752665,151.0955457,-33.758863792307686
place_of_worship,Lutheran,Lifeway Luthereran Church,Christian,317752666,151.0875717555556,-33.76578703333333
place_of_worship,Anglican,Christ Church,Christian,318034644,150.68042771999998,-33.68997346
place_of_worship,Roman Catholic,Saint Mary Of The Angels Catholic Church,Christian,318678648,135.85620928749998,-34.727495662500004
place_of_worship,Unknown,Trevallyn Life Church,Christian,319240144,147.10620092222223,-41.43059998888889
place_of_worship,Anglican,Christ Church,Christian,319333506,144.14572916000003,-37.34429482
place_of_worship,Uniting Church Of Australia,Daylesford Uniting Church,Christian,319333508,144.14405098000003,-37.344090599999994
place_of_worship,Catholic,St. Peter'S,Christian,319333509,144.144535,-37.3433156
place_of_worship,Unknown,Tarrayoukyan Church,Christian,320338983,141.57512749999998,-37.32602792
place_of_worship,Protestant,Loxton Uniting Church,Christian,320606371,140.57196994,-34.45110355333333
place_of_worship,Anglican,Holy Spirit Church (Anglican),Christian,320624145,145.08307122727274,-37.71009155454546
place_of_worship,Lutheran,Saint John'S Lutheran Church,Christian,320761836,140.87653786923076,-34.5434891
place_of_worship,Unknown,Apsley Uniting Church,Christian,321090713,141.08711622307692,-36.96522634615384
place_of_worship,Anglican,Apsley Anglican Church,Christian,321090736,141.08172215999997,-36.96759912
place_of_worship,Catholic,Apsley Catholic Church,Christian,321092023,141.08390558,-36.96738024
place_of_worship,Anglican,St Mark'S,Christian,321568640,151.14784676086956,-33.62283414782608
place_of_worship,Anglican,Blacktown Church Of Christ,Christian,321752334,150.91943435714285,-33.79650347142857
place_of_worship,Unknown,Epping Church Of Christ,Christian,322975639,151.0790985,-33.774447515384615
place_of_worship,Anglican,St John'S,Christian,323152202,151.24912543076923,-33.94319656923077
place_of_worship,Uniting,Ross Uniting Church,Christian,325851091,147.49123249999997,-42.03227187222222
place_of_worship,Anglican,St Luke'S Anglican Church,Christian,326023312,147.49466683333335,-41.92582778333333
place_of_worship,Unknown,Hobart Synagogue,Jewish,326655541,147.32800182,-42.87967081199999
place_of_worship,Unknown,Fentons Creek Church,Christian,326846034,143.53907370000002,-36.559208139999996
place_of_worship,Unknown,Stuart Mill Uniting Church,Christian,326966233,143.28447064,-36.80969648
place_of_worship,Catholic,St Damian'S Church,Christian,326994801,145.05772579444445,-37.69807235555555
place_of_worship,Hillsong,Hillsong Church,Christian,327047458,150.9608474,-33.7345071
place_of_worship,Seventh Day Adventist,Collinsvale Seventhday Adventist Church,Christian,327090255,147.19680709999997,-42.840067340000004
place_of_worship,Unknown,Planetshakers Church East Campus,Christian,328927129,145.23248826,-37.813413520000005
place_of_worship,Greek Orthodox,St George Greek Orthodox Church Thebarton,Christian,329614107,138.57232296,-34.9219183
place_of_worship,Catholic,Corpus Christi Catholic Church,Christian,329975661,151.72274534615383,-32.90014787692307
place_of_worship,Anglican,All Saints Church,Christian,330192887,145.00444421818182,-37.7382549
place_of_worship,Anglican,Christ Church Brunswick,Christian,330313196,144.96200754761907,-37.77190370952381
place_of_worship,Unknown,City Central Church,Christian,330460650,146.91972522857142,-36.08416747857142
place_of_worship,Uniting,West Adelaide Uniting Church,Christian,330488469,138.54829872,-34.931825579999995
place_of_worship,Unknown,Goodlife Church,Christian,330609124,151.75585972,-32.91905798
place_of_worship,Lutheran,Living Faith Lutheran Church,Christian,331014792,153.01479132666665,-27.256592766666664
place_of_worship,Baptist,North Pine Baptist,Christian,331016448,153.00932593846153,-27.26360893076923
place_of_worship,Catholic,St Ignatius Church,Christian,331191431,145.93199014,-30.08808504
place_of_worship,Roman Catholic,St Jude'S Catholic Church,Christian,332228463,149.9800502,-33.14294252
place_of_worship,Catholic,Saint Mary'S Star Of The Sea,Christian,332230021,145.90365210714285,-41.05564088571429
place_of_worship,Catholic,Our Lady Of Fatima Catholic Church,Christian,332239351,153.02451455555558,-27.57910632222222
place_of_worship,Catholic,Dalton Chapel,Christian,332249843,151.15617530000003,-33.82788232307692
place_of_worship,Roman Catholic,St Theresa'S,Christian,333046297,145.7306980375,-17.006693112500002
place_of_worship,Unknown,Wesleyan Methodist Church Of Australia,Christian,333201572,145.21333896666664,-37.987985183333336
place_of_worship,Roman Catholic,St Mary'S Catholic Church,Christian,333516298,146.7260389466667,-36.55415055333333
place_of_worship,Unknown,Mountain Glory Church,Christian,333521620,146.72100364444444,-36.55648054444445
place_of_worship,Baptist,Baptist Church,Christian,333710686,134.40590138000002,-21.00258958
place_of_worship,Protestant,Church Of Christ,Christian,334665640,140.69537168000002,-36.360422099999994
place_of_worship,Methodist,Mundulla Uniting Church,Christian,334665649,140.69171062,-36.358911320000004
place_of_worship,Anglican,Anglican Church,Christian,334665668,140.69009298,-36.36146126
place_of_worship,Baptist,Mulgrave Community Baptist Church,Christian,335467160,145.72669671538463,-17.019019869230767
place_of_worship,Roman Catholic,St Columbkille'S Catholic Church,Christian,337528444,150.89781562,-34.36749028
place_of_worship,Baptist,Lakeside Baptist Church,Christian,338778659,115.83939984444444,-32.08139402222222
place_of_worship,Roman Catholic,St Francis Of Assisi,Christian,338957441,116.02217052,-31.955280440000003
place_of_worship,Presbyterian,Westminster Presbyterian Church,Christian,338957443,116.02343784,-31.9524712
place_of_worship,Jehovahs Witness,Kingdom Hall,Christian,339315962,145.82159655555557,-41.056118777777776
place_of_worship,Catholic,St Peter'S Catholic Church,Christian,339455716,150.51570624000001,-34.594974959999995
place_of_worship,Anglican,St David'S,Christian,339457401,150.5182022,-34.59992448
place_of_worship,United,Kangaloon Uniting Church,Christian,339462928,150.55553078000003,-34.55957836
place_of_worship,Catholic,Our Lady Of Mount Carmel Church,Christian,340232319,144.95928069411764,-37.8485857882353
place_of_worship,Baptist,Thornleigh Community Baptist Church,Christian,341244578,151.0819723875,-33.725596749999994
place_of_worship,Anglican,Anglican Parish Of Magill,Christian,341989644,138.65086183999998,-34.90582294
place_of_worship,Mormon,Firle Church Of Jesus Christ Of Latter-Day Saints,Christian,341989645,138.65100768333335,-34.90393685
place_of_worship,Seventh Day Adventist,Trinity Gardens Seventh Day Adventist Church,Christian,341989646,138.64079114,-34.9123852
place_of_worship,Anglican,St James Turramurra,Christian,342426292,151.1278097,-33.728949916000005
place_of_worship,Anglican,St Peter'S Anglican Church,Christian,342979650,152.4614213142857,-24.816310371428568
place_of_worship,Seventh Day Adventist,Bundaberg Seventh Day Adventist Church,Christian,343477622,152.34659743529414,-24.867620135294118
place_of_worship,Roman Catholic,Holy Rosary Church,Christian,343479185,152.3498249368421,-24.867445678947366
place_of_worship,Presbyterian,Bundaberg Uniting Church,Christian,343939636,152.35067351333336,-24.870294286666667
place_of_worship,Unknown,Nan Hai Pu Tuo Temple,Buddhist,344392944,138.44928674285714,-35.349460685714284
place_of_worship,Salvation Army,Salvation Army,Christian,345293992,152.35193880000003,-24.86726423333333
place_of_worship,Catholic,St Matthews Church,Christian,345417471,150.03391831999997,-33.48405356
place_of_worship,Catholic,St Mary'S Catholic Church,Christian,345635897,148.77722755999997,-35.995046939999995
place_of_worship,Anglican,Saint John'S,Christian,345718377,152.4549719333333,-31.91709855555555
place_of_worship,Roman Catholic,St Malachy'S,Christian,346174738,149.9717881,-32.796130122222216
place_of_worship,Uniting,Ilford Uniting Church,Christian,346406211,149.85925672,-32.963648039999995
place_of_worship,Catholic,St Brendans,Christian,346472788,150.03416217777777,-33.29660477777779
place_of_worship,Lutheran,New Residence Lutheran Church,Christian,346603553,140.40507585999998,-34.37220670000001
place_of_worship,Catholic,St. Aidan'S Catholic Church,Christian,346606931,138.64202936,-34.89479881999999
place_of_worship,Mormon,Adelaide Australia Temple,Christian,346608057,138.6351316909091,-34.89275225454546
place_of_worship,Roman Catholic,St Colman'S Catholic Church 1890-1990,Christian,348538635,146.71629982,-42.619182599999995
place_of_worship,Anglican,St Andrews Anglican Church 1809,Christian,348668681,146.70706271111112,-42.60987486666667
place_of_worship,Unknown,Gundaroo Community Church,Christian,349682941,149.26619381999998,-35.02931082
place_of_worship,Roman Catholic,St Jospeph'S,Christian,349682961,149.26866271999998,-35.02697278000001
place_of_worship,Seventh Day Adventist,Hinkler Seventh Day Adventist Church,Christian,350127034,152.35887273846154,-24.893692292307687
place_of_worship,Latter Day Saints,The Church Of Jesus Christ Of Latter-Day Saints Perth,Christian,350494757,115.87040252857143,-31.90696542857143
place_of_worship,Roman Catholic,St Patrick'S Church,Christian,350853204,152.3383528,-24.87652208
place_of_worship,Baptist,Connect Baptist Church,Christian,351280717,153.05631904,-27.327781319999996
place_of_worship,Salvation Army,Bundaberg Bible Chapel,Christian,353064326,152.37562374285716,-24.8905361
place_of_worship,Unknown,Gleniffer Community Church,Christian,353119650,152.8850408,-30.38813576666667
place_of_worship,Anglican,St James Church,Christian,354745466,151.21118092272727,-33.86945514545454
place_of_worship,Unknown,St Matthews Catholic Church,Christian,355206028,144.3630474,-35.956470284615385
place_of_worship,Congregrationalist,Churches Of Christ,Christian,355503336,152.36165069999998,-24.88731576
place_of_worship,Uniting Church,Wesley Vale Uniting Church,Christian,356509347,146.4561097888889,-41.19071026666667
place_of_worship,Unknown,Coonooer Bridge Uniting Church,Christian,358272892,143.31852357999998,-36.4757167
place_of_worship,Maronite,St Joseph'S Maronite Church,Christian,358451251,151.11644500000003,-33.871868199999994
place_of_worship,Maronite,St Maroun'S Cathedral,Christian,358451401,151.2071707,-33.892532419999995
place_of_worship,Maronite,St Charbel'S Church,Christian,358451611,151.05629504705885,-33.91765635294118
place_of_worship,Unknown,St Charbel'S Monastery,Christian,358451739,151.05641139999997,-33.917837549999994
place_of_worship,Unknown,Bargara Uniting Church,Christian,358452435,152.45475693333333,-24.824490483333335
place_of_worship,Pentecostal,Pentecostals Of Bundaberg,Christian,358523279,152.34853837777777,-24.873508055555554
place_of_worship,Baptist,Bundaberg Baptist Church,Christian,358529138,152.34366752222223,-24.89399793333333
place_of_worship,Unknown,Church Of Christ,Christian,358583465,152.3546724285714,-24.877643785714287
place_of_worship,Anglican,Anglican Church,Christian,358643307,152.40800805714284,-24.763351514285713
place_of_worship,Lutheran,St John'S Lutheran Church Bundaberg,Christian,359375985,152.3616757,-24.869688180000004
place_of_worship,Jehovahs Witness,Bargara Kingdom Hall,Christian,359381674,152.46850607142855,-24.849719042857146
place_of_worship,Salvation Army,Bundaberg Bible Chapel,Christian,359735666,152.40796860377358,-24.842874411320757
place_of_worship,Anglican,Good Shepherd Anglican Church,Christian,359885766,152.3309593,-24.876883384615383
place_of_worship,Evangelical,Church Of The Nazarene,Christian,359980066,152.33285568,-24.88092254
place_of_worship,Baptist,Gospel Light Baptist Church,Christian,359980067,152.33387825999998,-24.8790455
place_of_worship,Coptic Orthodox,Saints Paul And Reweis Coptic Orthodox Church,Christian,360344870,151.29044522,-33.72903142
place_of_worship,Unknown,St. Marys,Christian,360630314,144.20608679999998,-36.53594214444445
place_of_worship,United,Sea Lake Uniting Church,Christian,361136152,142.8536242,-35.504485599999995
place_of_worship,Anglican,Church Of St Alban The Martyr,Christian,361341285,142.07557683636367,-34.19579883636363
place_of_worship,Anglican,Engadine Anglican Church,Christian,362079941,151.01224902222222,-34.06459935555555
place_of_worship,Unknown,Port Melbourne Uniting Church,Christian,362167345,144.94273173333335,-37.835808783333334
place_of_worship,Congregational,Engadine Congregational Church,Christian,362253201,151.0106936777778,-34.0651006
place_of_worship,Roman Catholic,Holy Trinity Anglican Church,Christian,362493675,144.94168522,-37.83979832
place_of_worship,Unknown,S - Chapel,Christian,362939285,152.33589065999996,-24.86848072
place_of_worship,Unknown,Woodstock West Church,Christian,363535310,143.9699953,-36.824272539999996
place_of_worship,Unknown,Bears Lagoon Church,Christian,363543644,143.97435837777778,-36.33109941111111
place_of_worship,Uniting,Corack Uniting Church,Christian,363727893,143.04305082222223,-36.16620187777778
place_of_worship,Anglican,All Saints Tangmangaroo,Christian,363748571,148.79248456666664,-34.63401163333333
place_of_worship,Anglican;Uniting,Coutts Crossing Union Church,Christian,363906276,152.89131193076923,-29.831396576923076
place_of_worship,Roman Catholic,St Michael'S Catholic Church,Christian,364641569,146.53491365,-38.19478075
place_of_worship,Catholic,Stella Marvis Catholic Church,Christian,365406464,153.43551536,-28.03699176
place_of_worship,Latter Day Saints,Church Of Latter Day Saints,Christian,365630584,150.90174906153848,-33.87048456153846
place_of_worship,Unknown,Welcome Street Church,Christian,365639581,150.90626597777776,-33.872912677777784
place_of_worship,Roman Catholic,St Joseph'S Catholic Church,Christian,365644175,152.842311575,-25.2817968
place_of_worship,Uniting,"Uniting Church, Abbotsbury",Christian,365648147,150.8695191,-33.86931061428571
place_of_worship,Assemblies Of God,Bayside Christian Church,Christian,365684757,152.8455234,-25.28610786153846
place_of_worship,Unknown,Parkside Church,Christian,365786810,150.8844628,-33.886086927272736
place_of_worship,Catholic,St Nicholas Of Myra Parish Church,Christian,365800685,150.70019242045453,-33.75448204772727
place_of_worship,Anglican,Penrith Anglican Church,Christian,365801708,150.70339596153846,-33.75518623846154
place_of_worship,Presbyterian,Gracepoint Chinese Presbyterian Church,Christian,365803542,150.89008657142858,-33.88440748571429
place_of_worship,Baptist,Fraser Coast Baptist Church,Christian,365888760,152.8157200285714,-25.299033299999998
place_of_worship,Lutheran,St James Lutheran Church,Christian,365888773,152.81469905454543,-25.29874257272727
place_of_worship,Unknown,Nan Tien Temple,Buddhist,365948557,150.84853843333335,-34.466592761111116
place_of_worship,Unknown,Tarrawarra Abbey,Christian,365949609,145.44487303076923,-37.659885546153845
place_of_worship,Anglican,St. Mark Church,Christian,365957561,143.1244023857143,-38.25059419999999
place_of_worship,Baptist,Hervey Bay Baptist Church,Christian,365973079,152.80263762222222,-25.311221766666662
place_of_worship,Methodist,Wesley Chapel,Christian,366004213,115.97290531818182,-31.8996446
place_of_worship,Uniting,Uniting Church,Christian,366227454,151.1375595684211,-33.9323150368421
place_of_worship,Anglican,St. Bede'S Anglican Church,Christian,367036781,151.08307935000002,-33.9489358
place_of_worship,Presbyterian,St David'S Presbyterian,Christian,367045124,151.6965895,-32.963854039999994
place_of_worship,Unknown,Saint Mary Immaculate,Christian,367045164,151.69932102,-32.96378738
place_of_worship,Latter Day Saints,Latter Day Saints,Christian,367905206,146.07619326666665,-34.274417255555555
place_of_worship,Anglican,St Stephen'S Anglican Church,Christian,370370548,150.57104278,-34.20248752
place_of_worship,Unknown,Guardian Angels Church,Christian,370654130,153.41390816,-27.966249460000007
place_of_worship,Catholic,St Francis Of Assisi Chapel,Christian,370658086,152.89852839,-31.45519774
place_of_worship,Unknown,The Heights Family Church Of Christ,Christian,370786926,151.70338964285716,-32.91933911428572
place_of_worship,Methodist,The Old Methodist Church,Christian,371025585,151.98212587142856,-28.036462585714283
place_of_worship,Unknown,Church Of God,Christian,371063112,152.33916514285713,-24.882703728571432
place_of_worship,Unknown,Temple Shalom Gold Coast,Jewish,371288832,153.42306384285715,-28.011981371428572
place_of_worship,Roman Catholic,Catholic Church,Christian,371431542,146.41179692857142,-34.601861414285715
place_of_worship,Uniting,St. Andrews Uniting Church,Christian,371682680,151.98098918571426,-28.034945285714283
place_of_worship,Anglican,St. David'S,Christian,371688791,151.98889132857144,-28.036389414285715
place_of_worship,Lutheran,Lutheran Church,Christian,372145661,151.69847847777774,-27.187374433333336
place_of_worship,Anglican,"St Barnabas, Charnwood",Christian,372148525,149.03475994000001,-35.20547626
place_of_worship,Unknown,New Lambton Uniting Church Trinity Centre,Christian,372421224,151.71270924,-32.92444634
place_of_worship,Catholic,St. Thomas The Apostle Church,Christian,372658445,145.11918333888886,-37.68173946666667
place_of_worship,Orthodox,Serbian Orthodox Church Of St. Sava,Christian,372667176,145.11992674166666,-37.68380773333333
place_of_worship,Baptist,Diamond Valley Baptist Church,Christian,372685621,145.12314227692312,-37.67759938461538
place_of_worship,Jehovahs Witness,Kingdom Hall Of Jehovah'S Witnesses,Christian,372794384,145.12486462727273,-37.6758435
