amenity,denomination,name,religion,id,lon,lat
place_of_worship,Anglican,Saint Marks Church,Christian,13886722,151.2364037,-33.8747343
place_of_worship,Seventh Day Adventist,Adventist Church,Christian,17029183,152.8977718,-31.4668789
place_of_worship,Anglican,St. Mark'S Anglican Church,Christian,18467512,151.2475637,-33.9622516
place_of_worship,Catholic,St. Andrew'S Catholic Church,Christian,18468950,151.2469505,-33.9635141
place_of_worship,Unknown,Gracepoint Christian Church,Christian,18548772,151.241907,-33.9190242
place_of_worship,Presbyterian,Randwick Presbyterian Church,Christian,18556475,151.2394733,-33.9125937
place_of_worship,Catholic,St Vincent De Paul Catholic Church,Christian,18825536,151.2026012,-33.8927173
place_of_worship,Unknown,St. John'S Cathedral Parramatta,Christian,19160811,151.0026966,-33.8158655
place_of_worship,Uniting,Shirley Road Church,Christian,19966739,151.1993296,-33.8281884
place_of_worship,Presbyterian,Hunter Baillie Memorial Presbyterian Church,Christian,20152887,151.16932,-33.8832554
place_of_worship,Catholic,St. Brendan'S Catholic Church,Christian,20152891,151.1699321,-33.883931
place_of_worship,Protestant,Martin Luther Kirche,Christian,20930158,151.2096358,-33.8783236
place_of_worship,Presbyterian,St. George'S Presbyterian Church,Christian,20930445,151.2089287,-33.8740842
place_of_worship,Baptist,Central Baptist Church,Christian,20930512,151.20537,-33.878106
place_of_worship,Catholic,St. Peter Julian'S Catholic Church,Christian,20930515,151.2053089,-33.8786618
place_of_worship,Unknown,Church In The Market Place,Christian,20958826,151.2476925,-33.8916569
place_of_worship,Uniting,Uniting Church In Australia,Christian,20958866,151.1971858,-33.8769383
place_of_worship,Baptist,Katoomba Baptist Church,Christian,20973509,150.3101414,-33.7173103
place_of_worship,Salvation Army,Salvation Army,Christian,20973510,150.3095348,-33.7172474
place_of_worship,Uniting,Uniting Church,Christian,20973524,150.3115906,-33.7152214
place_of_worship,Anglican,St Hilda'S Anglican Church,Christian,20973546,150.3120196,-33.7136275
place_of_worship,Uniting,Leura Uniting Church,Christian,20976831,150.3327052,-33.7141898
place_of_worship,Anglican,St Alban'S Anglican Church,Christian,20976838,150.3316211,-33.7144353
place_of_worship,Baptist,Baptist Church,Christian,20977083,150.3310505,-33.711081899999996
place_of_worship,Uniting,Chapel By The Sea,Christian,20979931,151.2741279,-33.8902645
place_of_worship,Presbyterian,Presbyterian Worship & Ministry Centre,Christian,21279653,151.2646782,-27.179586
place_of_worship,Lutheran,St Mark'S Lutheran Church,Christian,21293323,151.2630536,-27.1806284
place_of_worship,Anglican,St John'S Anglican Church,Christian,21293834,151.263347,-27.1841782
place_of_worship,Catholic,St Thomas More'S Catholic Church,Christian,21321702,151.9630522,-27.5803912
place_of_worship,Assemblies Of God,Christian Life Assembly Church,Christian,29186644,145.1464134,-37.8846976
place_of_worship,Presbyterian,Scot'S Presbyterian Church,Christian,32661968,150.696012,-34.7773032
place_of_worship,Catholic,St Josephs,Christian,34051871,144.9439393,-37.7623609
place_of_worship,Catholic,Holy Rosary Catholic Church,Christian,41185323,115.8081847,-31.9835318
place_of_worship,Presbyterian,Knox Presbyterian,Christian,48674715,145.2337573,-37.8471823
place_of_worship,Uniting,Tusmore Uniting Church,Christian,57932628,138.6471047,-34.9332589
place_of_worship,Catholic,Saint Mary Star Of The Sea,Christian,59900463,115.7658954,-31.9944755
place_of_worship,Seventh Day Adventist,Wantirna Seventh-Day Adventist Church,Christian,60414305,145.2164778,-37.855273
place_of_worship,Anglican,Saint Luke'S,Christian,60447853,151.0970444,-33.6740323
place_of_worship,Baptist,Hornsby Heights Baptist Church,Christian,60573238,151.0981599,-33.6762645
place_of_worship,Uniting,Burwood Heights Uniting Church,Christian,78422041,145.1522508,-37.853195
place_of_worship,Unknown,St Fidelis,Christian,81082899,144.9526525,-37.7498859
place_of_worship,Unknown,Sydney Murugan Temple,Hindu,81268467,150.9843012,-33.8200659
place_of_worship,Catholic,Our Lady Queen Of Peace,Christian,82477054,150.9517803,-33.8188172
place_of_worship,Catholic,St Brigid'S,Christian,83227148,153.010694,-27.4575404
place_of_worship,Baptist,Windsor Road Baptist Church,Christian,83234727,153.0068729,-27.4537701
place_of_worship,Anglican,Anglican Church,Christian,98602131,147.2970337,-42.8548976
place_of_worship,Assemblies Of God,Italian Pentecostal Church,Christian,104465813,145.1489293,-37.8714938
place_of_worship,Roman Catholic,St Christophers Catholic Church,Christian,106652934,145.1491763,-37.8704911
place_of_worship,Anglican,Anglican Church Of The Ascension,Christian,106657674,145.1508405,-37.8570517
place_of_worship,Seventh Day Adventist,The Oasis,Christian,106681865,145.2852102,-37.7894047
place_of_worship,Anglican,St Matthews Anglican Church,Christian,107152431,145.178557,-37.9104755
place_of_worship,Assemblies Of God,Faith! Christian Church,Christian,132979502,145.2095102,-37.9496845
place_of_worship,Catholic,Saint Augustine'S Catholic Church,Christian,145200030,144.9548536,-37.8170791
place_of_worship,Anglican,Christ Church Dingley,Christian,145258324,145.1189555,-37.9729168
place_of_worship,Christ Scientist,"First Church Of Christ, Scientist, Ringwood",Christian,149820672,145.2296929,-37.8164582
place_of_worship,Christadelphian,Brisbane Christadelphian,Christian,156569110,153.03317,-27.423957
place_of_worship,Unknown,Lutwyche Mosque,Muslim,156570956,153.0306202,-27.4251714
place_of_worship,Catholic,Saint Carthage'S,Christian,158176405,153.024974,-27.4176861
place_of_worship,Catholic,St John'S Catholic Church,Christian,159101229,147.4410972,-42.7317935
place_of_worship,Anglican,St Luke'S Anglican Church,Christian,159104996,147.4389576,-42.7384271
place_of_worship,Anglican,St Marys,Christian,168424970,151.1914975,-33.8574842
place_of_worship,Anglican,St Peters,Christian,184320074,150.9190679,-31.1102158
place_of_worship,Anglican,All Saints Duri,Christian,184338907,150.8167882,-31.2151321
place_of_worship,Lutheran,Redeemer Lutheran Church,Christian,191839331,145.1546216,-37.8628638
place_of_worship,Anglican,Anglican Church Of Australia,Christian,196196656,144.9491655,-37.7468264
place_of_worship,Anglican,The Anglican Parish Of Saint Philip,Christian,202048629,145.124721,-37.8948562
place_of_worship,Roman Catholic,Christ Our Holy Redeemer Parish,Christian,204089744,145.1059069,-37.8962041
place_of_worship,Catholic,Sacred Heart Catholic Church,Christian,205751210,152.8882491,-27.376038
place_of_worship,Anglican,Saint Pauls Anglican Church,Christian,205852625,152.8887974,-27.3677881
place_of_worship,Catholic,St Mary'S Catholic Church,Christian,208535676,151.1023885,-33.8678052
place_of_worship,Christian Brethren Fellowships In Victoria,Oakleigh Christian Fellowship,Christian,213819114,145.106851,-37.8894984
place_of_worship,Uniting,St. Johns Mount Waverley,Christian,213847858,145.1258073,-37.8777653
place_of_worship,Uniting,St Luke'S Uniting Church Mount Waverley,Christian,235945555,145.1234297,-37.864045
place_of_worship,Anglican,St Stephen'S Anglican Church,Christian,236325634,145.125215,-37.8692149
place_of_worship,Presbyterian,Wilston Presbyterian Church,Christian,237401080,153.0195275,-27.4340016
place_of_worship,Anglican,St Albans Anglican Church,Christian,237411769,153.0159484,-27.4294994
place_of_worship,Catholic,Mater Dei Catholic Church,Christian,240379510,152.9736836,-27.4491327
place_of_worship,Anglican,St John'S,Christian,240434453,150.6971242,-34.0566679
place_of_worship,Evangelical,Lynwood Christian Church,Christian,241518213,115.930239,-32.0289853
place_of_worship,Assemblies Of God,Monash Christian Church,Christian,243078696,145.1557377,-37.9082183
place_of_worship,Uniting,St. Andrews,Christian,243698214,150.6249152,-33.7663023
place_of_worship,Anglican,St Thomas,Christian,244128707,151.1705213,-33.8636459
place_of_worship,Anglican,St John Chrysostum,Christian,244220852,144.9439368,-37.7650582
place_of_worship,Unknown,Blaxland Gospel Chapel,Christian,244314462,150.6238195,-33.7413765
place_of_worship,Unknown,Monash Christian Fellowship,Christian,244429798,145.1431304,-37.9171751
place_of_worship,Pentecostal,Italian Pentecostal Church,Christian,244879186,144.9451071,-37.7651427
place_of_worship,Anglican,Lmap Mt Riverview,Christian,246699568,150.6303625,-33.7321996
place_of_worship,Catholic,Saint Finbars Catholic Church,Christian,246699597,150.6183543,-33.7609856
place_of_worship,Brethren,Glen Hill Community Church,Christian,247151291,145.1725993,-37.875226
place_of_worship,Uniting Church Of Australia,Glen Waverley Uniting Church,Christian,247151857,145.1628724,-37.882193
place_of_worship,Baptist,Bowen Baptist,Christian,247163995,148.236564,-19.9892792
place_of_worship,Anglican,St John,Christian,247175999,151.1795163,-33.852589
place_of_worship,Salvation Army,Bowen Corps,Christian,247180914,148.2432202,-20.0109655
place_of_worship,Baptist,Flinders Street Baptist Church,Christian,247966121,138.6033359,-34.9272358
place_of_worship,Catholic,St. Francis Xavier Cathedral,Christian,247966123,138.6014684,-34.9288434
place_of_worship,Unknown,Ashwood Gospel Chapel,Christian,248124617,145.1028185,-37.8678638
place_of_worship,Unknown,Cao Dai Temple Of Nsw,Caodaism,248886653,151.0696444,-33.9243022
place_of_worship,Catholic,St Monica'S,Christian,249508818,149.0621347,-35.2137529
place_of_worship,Baptist,North Belconnen Baptist Church,Christian,249518722,149.0617651,-35.2104557
place_of_worship,Anglican,St Paul'S Ginninderra Anglican Church,Christian,249555533,149.0658442,-35.1986462
place_of_worship,Uniting,Oxley Uniting Church,Christian,249773176,152.9745069,-27.5541009
place_of_worship,Unknown,Bush Chapel,Christian,251111659,152.9670717,-27.4742091
place_of_worship,Baptist,Rostrevor Baptist Church,Christian,251162383,138.6910613,-34.8869157
place_of_worship,Church Of Christ,Chadstone Church Of Christ,Christian,251295538,145.104921,-37.8818047
place_of_worship,Catholic,St Mary Magdalen'S Parish,Christian,251295828,145.1018912,-37.8802126
place_of_worship,Baptist,Chadstone Baptist Church,Christian,251296278,145.0970074,-37.8766423
place_of_worship,Unknown,Chinese Christian Church Sydney,Christian,251741032,151.2108592,-33.8450546
place_of_worship,Anglican,Anglican Church,Christian,255339010,153.033314,-30.3782514
place_of_worship,Unknown,Al Amanah,Muslim,256009669,151.0282113,-33.9164673
place_of_worship,Seventh Day Adventist,Burwood Adventist Community Church,Christian,256219042,145.1135065,-37.8562216
place_of_worship,Uniting,Uniting Church,Christian,256638021,151.1116003,-33.6735282
place_of_worship,Greek Orthodox,Oakleigh Greek Orthodox Church,Christian,257871187,145.0836968,-37.8964695
place_of_worship,Catholic,Sacred Heart Oakleigh Catholic,Christian,258012215,145.0869499,-37.9018748
place_of_worship,Anglican,St Luke'S,Christian,258025983,150.8038413,-34.4833317
place_of_worship,Anglican,"Holy Nativity Anglican Church, Hughesdale",Christian,258237029,145.0750366,-37.9024708
place_of_worship,Free Presbyterian,Australian Free Church,Christian,258287830,145.0835166,-37.8888365
place_of_worship,Seventh Day Adventist,Hughesdale Seventh-Day Adventist Church,Christian,258289227,145.0760236,-37.8974251
place_of_worship,Uniting,Uniting Church Coatsville,Christian,258289979,145.0765043,-37.9087555
place_of_worship,Anglican,St Phillips,Christian,258486199,151.1106393,-33.7454465
place_of_worship,Anglican,Holy Trinity Oakleigh Anglican Church,Christian,259129863,145.0879738,-37.8924843
place_of_worship,Anglican,Saint Simon And Saint Jude,Christian,259243390,147.2378258,-43.1612859
place_of_worship,Uniting,Woodbridge Uniting Church,Christian,259244106,147.2384232,-43.1658496
place_of_worship,Greek Orthodox,Greek Orthodox Parish Of St. Andrew,Christian,260716381,145.1652486,-37.8450468
place_of_worship,Anglican,Saint Clemonts On The Hill,Christian,261697103,153.0143536,-27.4081616
place_of_worship,Uniting,Graceville Uniting Church,Christian,262155430,152.9789625,-27.5205092
place_of_worship,Unknown,Holy Trinity Church,Christian,262911592,149.0814897,-35.3271835
place_of_worship,Uniting,Tecoma Uniting Church,Christian,266259410,145.3456306,-37.9074074
place_of_worship,Baptist,Kilsyth South Baptist Church,Christian,266322182,145.3179539,-37.8389021
place_of_worship,Methodist,Wesleyan Methodist Church,Christian,266442145,145.2816453,-37.8670087
place_of_worship,Uniting,Uniting Church Kennedy Terrace,Christian,268792217,152.9948256,-27.4535436
place_of_worship,Baptist,Kruger Parade Baptist Church,Christian,270277101,152.875282,-27.6225108
place_of_worship,Anglican,Saint Luke'S Anglican Church,Christian,270285705,152.8675315,-27.6153317
place_of_worship,Presbyterian,Bethel Bible Presbyterian Church,Christian,271047804,145.0942497,-37.8999848
place_of_worship,Baptist,Orange Grove Baptist Church,Christian,271125036,115.9788716,-32.0042041
place_of_worship,Anglican,Christ Church,Christian,275913569,150.5560732,-33.6995553
place_of_worship,Unknown,Hepburn Heights Mosque (Al-Hidayah),Muslim,276369920,115.7763904,-31.8151705
place_of_worship,Brethren,Duncraig Christian Fellowship,Christian,276563131,115.7658815,-31.8373038
place_of_worship,Anglican,St Nicholas Church,Christian,276563299,115.7767906,-31.8453462
place_of_worship,Anglican,St Johns,Christian,277369171,152.9897169,-27.4295129
place_of_worship,Catholic,St Patrick'S,Christian,277660083,116.7666692,-31.8903215
place_of_worship,Catholic,Our Lady Of Grace,Christian,277755166,115.7584346,-31.8638636
place_of_worship,Uniting,St Stephen'S Uniting Church,Christian,278132032,115.8420141,-32.0121349
place_of_worship,Lutheran,St Paul'S Lutheran Church,Christian,278919605,145.1239086,-37.8166942
place_of_worship,Unknown,Congregation Of Vietnamese Buddhists,Buddhist,279277873,115.8445612,-31.8214784
place_of_worship,True Jesus Church,"True Jesus Church, Box Hill",Christian,280431031,145.1268011,-37.8115748
place_of_worship,Salvation Army,Box Hill Salvation Army,Christian,280431845,145.1193166,-37.8156974
place_of_worship,Anglican,St Mark'S Anglican Church,Christian,280703993,150.8792563,-34.4263599
place_of_worship,Unknown,Rowville Uniting Church,Christian,280714319,145.2412018,-37.9186357
place_of_worship,Church Of Christ,Scarborough Church Of Christ,Christian,281224536,115.7879394,-31.8819044
place_of_worship,Uniting,St. Augustine Church,Christian,282464497,138.607936,-34.9513243
place_of_worship,Unknown,North Balga Christian Centre,Christian,282742869,115.8261983,-31.8467901
place_of_worship,Lutheran,Bethlehem Lutheran Church,Christian,283084563,138.6069606,-34.926572
place_of_worship,Anglican,Church Of The Ascension,Christian,283596696,145.7232637,-38.6338554
place_of_worship,Presbyterian,St Pauls Presbyterian Church,Christian,289380833,153.0275419,-27.4606869
place_of_worship,Shia,Imam Hasan Centre Canberra,Muslim,291548764,149.0720245,-35.3847749
place_of_worship,Uniting,Uniting Church,Christian,291685916,151.1528023,-34.0841452
place_of_worship,Unknown,Bundeena Community Church,Christian,291685989,151.1500471,-34.0842518
place_of_worship,Catholic,Catholic Church,Christian,291686102,151.1476524,-34.0843584
place_of_worship,Baptist,Rosalie Baptist Church,Christian,293657123,152.9964341,-27.4629921
place_of_worship,Presbyterian,Ithaca Presbyterian Church,Christian,293657136,153.001716,-27.4568868
place_of_worship,Catholic,Dajarra Catholic Church,Christian,294048178,139.515089,-21.6941451
place_of_worship,Catholic,St Thomas The Apostle,Christian,298607008,145.157197,-37.8233628
place_of_worship,Unknown,Guru Nanak Gurdwara Indian Temple,Sikh,298940689,153.192803,-30.1171194
place_of_worship,Uniting,Saint Paul'S Uniting Church,Christian,300485553,153.01737,-27.40625
place_of_worship,Roman Catholic,Holy Cross Church,Christian,301107219,151.3759026,-33.4884139
place_of_worship,Unknown,Carlton Mosque,Muslim,301698745,144.9704616,-37.7866593
place_of_worship,Orthodox,St John'S Greek Orthodox Church,Christian,302456201,144.9702271,-37.7825346
place_of_worship,Catholic,Sacred Heart Catholic Church,Christian,302755132,144.9807088,-37.8634405
place_of_worship,Catholic,Our Lady Of Dolours Catholic Church,Christian,304150131,144.9704701,-37.8579117
place_of_worship,Catholic,St Thomas Aquinas' Church,Christian,304157251,144.9773055,-37.8352791
place_of_worship,Unknown,Sassoon Yehuda Sephardi Synagogue,Jewish,304891751,144.9995792,-37.8672315
place_of_worship,Anglican,St Andrew'S Anglican Church,Christian,305089874,144.9926763,-37.9115931
place_of_worship,Catholic,St Joseph'S,Christian,305109515,153.0331649,-27.4829568
place_of_worship,Orthodox,Holy Trinity Ukrainian Orthodox Church,Christian,305537113,144.9711392,-37.7920273
place_of_worship,Anglican,St Mary'S Anglican Church,Christian,305874032,145.0127158,-37.8782688
place_of_worship,Baptist,Fellowship Baptist Church,Christian,307562187,152.9990222,-27.4077803
place_of_worship,Anglican,Saint Oswald'S,Christian,307969114,151.1394535,-33.8801307
place_of_worship,Anglican,Saint Alban'S,Christian,307970248,151.1294199,-33.8670826
place_of_worship,Catholic,Saint Paul'S Catholic Church,Christian,308714395,116.8467291,-20.7370329
place_of_worship,Baptist,Karratha Baptist Church,Christian,308868671,116.8212433,-20.7389723
place_of_worship,Roman Catholic,St Leonard'S Catholic Church,Christian,308993019,145.1641949,-37.8867647
place_of_worship,Unknown,Leo Baeck Centre For Progressive Judaism,Jewish,310001193,145.0543621,-37.7995891
place_of_worship,Salvation Army,Salvation Army,Christian,310384946,153.01364,-27.41548
place_of_worship,Uniting,St Margaret'S Uniting Church,Christian,310517982,145.3126873,-37.787749
place_of_worship,Anglican,St Francis In The Fields Anglican Church,Christian,310518122,145.3129534,-37.7883323
place_of_worship,Unknown,Linh Son Buddhist Temple,Buddhist,310955748,144.9817524,-37.70997
place_of_worship,Unknown,Perth Alliance Church,Christian,311308711,115.9394321,-31.9710929
place_of_worship,Catholic,Basilica Of Our Lady Of Victories,Christian,312678800,145.0565798,-37.8337813
place_of_worship,Uniting,St Luke'S Uniting Church,Christian,313876269,153.0733895,-27.4320344
place_of_worship,Baptist,Knightsbridge Baptist Church,Christian,314933679,138.6594808,-34.9324016
place_of_worship,Uniting,Ewing Memorial Uniting Church,Christian,315181593,145.0486556,-37.8721859
place_of_worship,Presbyterian,Norwood Presbyterian Church,Christian,315262468,138.631018,-34.9211066
place_of_worship,Anglican,St Matthew'S Church,Christian,315304915,138.6445793,-34.9270497
place_of_worship,Mormon,The Church Of Jesus Christ Of Latter-Day Saints,Christian,315992632,152.97951,-27.42
place_of_worship,Anglican,Holy Trinity,Christian,316021212,151.1450941,-33.902826
place_of_worship,Catholic,St John Vianney'S Church,Christian,316086756,138.6607312,-34.9411728
place_of_worship,Seventh Day Adventist,Seventh Day Adventist Church,Christian,316374525,145.0082703,-37.8528487
place_of_worship,Pentecostal,Manningham Christian Centre,Christian,316375004,145.1278889,-37.7575471
place_of_worship,Uniting,The Gap Uniting Church,Christian,317112832,152.9477787,-27.4448383
place_of_worship,Anglican,Saint Marks Anglican Church,Christian,317112839,152.9461052,-27.4434246
place_of_worship,Roman Catholic,Our Lady Of Mount Carmel,Christian,317653949,153.062067,-27.5033693
place_of_worship,Anglican,St Augustine'S Anglican Church,Christian,317680150,145.1070621,-37.8099862
place_of_worship,Catholic,St Aloyisius,Christian,318296944,138.6381871,-33.8838394
place_of_worship,Unknown,Saint Joseph'S Church,Christian,319204744,138.6667412,-34.9139274
place_of_worship,Christian Revival Crusade,Christian Gospel Centre,Christian,319483987,138.6095399,-35.5568985
place_of_worship,Anglican,All Saints,Christian,320405077,152.1411021,-32.7236438
place_of_worship,Presbyterian,St Andrews Church,Christian,320819420,147.1376339,-41.436241
place_of_worship,Baptist,Unley Park Baptist Church,Christian,321374371,138.6069916,-34.9603775
place_of_worship,Catholic,Saint John The Baptist Church,Christian,322735617,152.9992925,-27.4196168
place_of_worship,Uniting,John Flynn Memorial Chiurch,Christian,322874800,133.8824088,-23.6998302
place_of_worship,Uniting,Pine Rivers Uniting Church,Christian,323117667,152.9789788,-27.250887
place_of_worship,Unknown,United Muslims Migrant Association (Umma),Muslim,324210091,145.1545641,-37.7819232
place_of_worship,Unknown,Grovely Gospel Chapel,Christian,324825359,152.9655065,-27.3999466
place_of_worship,Catholic,St. William'S Catholic Church,Christian,324922049,152.9625713,-27.408117
place_of_worship,Orthodox,Greek Orthodox Church Of St. George,Christian,328431290,145.0016281,-37.7611724
place_of_worship,Unknown,Meadowlands Church Of The Nazarene,Christian,331118289,153.1059414,-27.4917254
place_of_worship,Catholic,Holy Family Catholic Church,Christian,333038606,151.1659213,-33.7737173
place_of_worship,Unknown,New Apostolic Church,Christian,333664083,153.0335737,-27.4248793
place_of_worship,Baptist,Baptist Church,Christian,336110445,151.1253612,-33.8902798
place_of_worship,Anglican,Christ Church Sofala,Christian,337437039,149.6947509,-33.0812389
place_of_worship,Anglican,St Stephen'S Anglican Church,Christian,339054774,144.9994918,-37.8985735
place_of_worship,United Reformed,St Luke'S Hungarian Reformed Church,Christian,339090884,144.980232,-37.7871014
place_of_worship,Unknown,Hawthorn Church Of Christ,Christian,339580685,138.6003787,-34.9738153
place_of_worship,Anglican,"All Saints Anglican Church, Clayton",Christian,339938496,145.1214216,-37.9194393
place_of_worship,Catholic,Everton Park Catholic Church,Christian,340148323,152.98823,-27.40102
place_of_worship,Seventh Day Adventist,Nunawading Seventh-Day Adventist Church,Christian,342858054,145.169316,-37.824559
place_of_worship,Anglican,St Lukes Anglican Church,Christian,343654834,152.726136,-26.5949192
place_of_worship,Anglican,Christ Church Anglican Church,Christian,344620461,144.9861373,-37.8385372
place_of_worship,Catholic,St Josephs,Christian,345098761,151.2202148,-33.8340917
place_of_worship,Anglican,St. James' Anglican Church,Christian,345143402,145.0459493,-37.7663506
place_of_worship,United Reformed,Ivanhoe Uniting Church,Christian,345145310,145.0431998,-37.7688885
place_of_worship,Anglican,St. Johns,Christian,346082193,151.2211841,-33.8323168
place_of_worship,Presbyterian,Presbyterian Memorial Church Coorparoo,Christian,347214492,153.05928,-27.50118
place_of_worship,United Reformed,St Aidan'S Uniting Church,Christian,347424259,145.0905368,-37.7960962
place_of_worship,Presbyterian,Ebenezer Bible Presbyterian Church,Christian,353136160,145.3157997,-37.8037631
place_of_worship,Uniting,Wallsend Uniting Church,Christian,353142696,151.6699742,-32.9047349
place_of_worship,Anglican,Saint Luke,Christian,353143163,151.6710697,-32.9053125
place_of_worship,Presbyterian,Saint Andrews,Christian,353145511,151.6696715,-32.9024116
place_of_worship,Roman Catholic,St Stephen'S,Christian,353453946,152.1594575,-32.6677899
place_of_worship,Community Church,Canterbury Gardens Community Church,Christian,354838761,145.3050191,-37.8277535
place_of_worship,Baptist,Stafford Heights Baptist Church,Christian,355185584,153.0108724,-27.3923396
place_of_worship,Uniting,Byng Church,Christian,356503410,149.2545653,-33.3496552
place_of_worship,Catholic,Saint Bernadettes,Christian,358120173,150.9264408,-33.7615206
place_of_worship,Unknown,Convent,Christian,358343512,153.0269883,-27.4861626
place_of_worship,Catholic,Christ The King,Christian,359803499,115.761868,-32.0679089
place_of_worship,Anglican,Saint Paul'S Anglican Church,Christian,360082850,153.044676,-27.48559
place_of_worship,Baptist,Coorparoo Baptist Church,Christian,360087237,153.059799,-27.4868875
place_of_worship,Uniting,Norman Park Uniting Church,Christian,360096050,153.0643459,-27.4839096
place_of_worship,Church Of Christ,Camp Hill Church Of Christ,Christian,360114638,153.0810236,-27.495724
place_of_worship,Catholic,Saint Agatha'S Catholic Church,Christian,360293356,153.0545106,-27.4267289
place_of_worship,Anglican,The Church Of The Resurrection,Christian,361073044,153.0038076,-27.3522759
place_of_worship,Catholic,Saint Kevin'S Catholic Church,Christian,361111511,151.6658172,-32.942607
place_of_worship,Seventh Day Adventist,Newcastle Polish And International,Christian,361759815,151.661464,-32.9069357
place_of_worship,Presbyterian,Korean Presbyterian Church,Christian,364015894,153.0944914,-27.616072
place_of_worship,Unknown,Vietnam Grace Church Brisbane,Christian,364201691,152.9721922,-27.5692153
place_of_worship,Catholic,Worsley Church,Christian,364678132,116.0077664,-33.3052412
place_of_worship,Seventh Day Adventist,Seventh Day Adventist Church,Christian,364859724,153.0372277,-27.4969932
place_of_worship,Catholic,St Lukes,Christian,364859769,153.0382528,-27.4941299
place_of_worship,Catholic,St Mary'S,Christian,365211234,151.6488932,-32.976209
place_of_worship,Catholic,Sacred Heart Church,Christian,366083004,144.9691908,-37.8028472
place_of_worship,Catholic,Our Lady Of Perpetual Succour,Christian,366083355,153.0245741,-27.5060901
place_of_worship,Lutheran,St Stephen'S Lutheran Church,Christian,367282363,138.6067759,-34.9280133
place_of_worship,Unknown,Bediuzzaman Said Nursi Cultural Foundation,Muslim,368392243,144.97646,-37.8043751
place_of_worship,Anglican,St Peters,Christian,369332530,149.563869,-33.6911128
place_of_worship,Roman Catholic,St. Joseph'S,Christian,369912338,152.1222883,-27.546416
place_of_worship,Salvation Army,Salvation Army Carlton,Christian,370231451,144.9690618,-37.7982396
place_of_worship,Unknown,Saint Benedict'S,Christian,370476302,153.045897,-27.4841828
place_of_worship,Catholic,St Thomas More,Christian,370543698,115.0699283,-33.9532603
place_of_worship,Unknown,Caulfield Hebrew Congregation,Jewish,370735798,145.0116178,-37.8676215
place_of_worship,Anglican,Holy Trinity Anglican Church,Christian,370747013,144.9833403,-37.814126
place_of_worship,Seventh Day Adventist,Seventh Day Adventist Church,Christian,370967852,152.9751226,-27.4091845
place_of_worship,Anglican,Church Of St John The Evangelist,Christian,373066254,149.632791,-33.3109487
place_of_worship,Catholic,Saint Michael'S,Christian,373555425,152.1377233,-32.7220791
place_of_worship,Baptist,Coburg Baptist Church,Christian,375734448,144.9659933,-37.7470013
place_of_worship,Anglican,Holy Trinity Anglican Church,Christian,375735576,144.9673938,-37.739905
place_of_worship,Catholic,St Paul'S Catholic Church,Christian,375736514,144.9677916,-37.7382995
place_of_worship,Orthodox,The Dormition Of Our Lady Greek Orthodox Church,Christian,377884427,144.8551298,-37.8371674
place_of_worship,Anglican,All Saints Gostwyck,Christian,378710902,151.5849052,-30.6950513
place_of_worship,Orthodox,St. Eustathios Church,Christian,380063234,144.9613829,-37.8330335
place_of_worship,Anglican,Saint Peters (Anglican),Christian,380483474,147.3694239,-42.2964982
place_of_worship,Uniting,Campbell Memorial Church,Christian,380483475,147.3661817,-42.3030797
place_of_worship,Presbyterian,St Paul'S Presbyterian Church,Christian,384214117,149.4148001,-33.0348063
place_of_worship,Unknown,Sacred Heart Catholic Church,Christian,384214120,149.4163522,-33.0370685
place_of_worship,Catholic,Our Lady Help Of Christians,Christian,389631251,153.0667321,-27.422116
place_of_worship,Anglican,St Michael And All Angels,Christian,391732467,152.8784173,-27.5687326
place_of_worship,Unknown,Northside Christian Church,Christian,392679627,152.9899449,-27.3930689
place_of_worship,Catholic,Sacred Heart Catholic Church,Christian,393786158,150.0582341,-33.4164237
place_of_worship,Uniting,Hoskins Uniting Church,Christian,395335733,150.1619324,-33.4814246
place_of_worship,United Reformed,Burwood Uniting Church,Christian,397154132,145.0952064,-37.8509597
place_of_worship,Uniting,Megalong Valley Uniting Church,Christian,400905559,150.2314794,-33.7155525
place_of_worship,Baptist,St Luke'S Baptist Community,Christian,402497896,145.0006124,-37.8013697
place_of_worship,Church Of Christ,Dalby Church Of Christ,Christian,403798344,151.2516524,-27.1849401
place_of_worship,Anglican,Holy Trinity,Christian,403816196,150.3709213,-33.714458
place_of_worship,Anglican,Christ The Redeemer,Christian,405082082,152.7690167,-31.6321841
place_of_worship,Uniting,Gladstone Uniting Church,Christian,408275118,152.9451629,-31.0274075
place_of_worship,Anglican,Christ Church,Christian,408334330,153.0463572,-31.0521246
place_of_worship,Unknown,Church Of Christ Wynnum,Christian,409988264,153.1721275,-27.4410108
place_of_worship,Assemblies Of God,Nambucca Valley Christian Life Centre,Christian,410044829,152.9729148,-30.6789165
place_of_worship,Evangelical,Riverview Church,Christian,411661943,115.893528,-31.966427799999998
place_of_worship,Unknown,Prince Of Peace,Christian,412134051,152.9781454,-27.3917193
place_of_worship,Presbyterian,St James,Christian,412409573,149.7174408,-31.8256381
place_of_worship,Anglican,Holy Trinity Anglican Church,Christian,412648439,152.9562364,-27.5668861
place_of_worship,Baptist,Canon Hill Baptist Church,Christian,413315369,153.0791977,-27.4723284
place_of_worship,Anglican,Saint Stephens,Christian,414018026,149.3929991,-33.5310432
place_of_worship,Anglican,St Pauls Anglican Church,Christian,414555628,151.6931999,-32.8954707
place_of_worship,Lutheran,St Peters,Christian,415927980,149.1072963,-33.2668153
place_of_worship,Anglican,St Matthias Anglican Church,Christian,420022659,144.9975351,-37.8097936
place_of_worship,Baptist,North-East Baptist Church,Christian,421009845,153.0588908,-27.4024404
place_of_worship,Unknown,Kuraby Christian Church,Christian,421417678,153.0981323,-27.617275
place_of_worship,Presbyterian,Presbyterian Church Of St Andrew,Christian,428472732,151.1269495,-33.8299653
place_of_worship,Catholic,Saint James,Christian,430545327,153.0518955,-27.4991961
place_of_worship,Lutheran,Dutton Lutheran Church,Christian,431501626,139.1425007,-34.3603149
place_of_worship,Catholic,Ukrainian Catholic Church Of Our Lady Of Protection,Christian,433482157,153.0378186,-27.4909842
place_of_worship,Anglican,Penshurst Anglican Church,Christian,434836808,151.0928176,-33.9642323
place_of_worship,Lutheran,St Stephen'S Lutheran Church,Christian,437214252,139.1870965,-33.9853124
place_of_worship,Unknown,Church Of Christ,Christian,437993470,153.0620652,-27.3438046
place_of_worship,Uniting,Five Ways Uniting Church,Christian,439387843,149.1060075,-33.2851377
place_of_worship,Lutheran,Saint Paul'S Lutheran Church,Christian,439993785,153.0627621,-27.4040465
place_of_worship,Unknown,Wilston Uniting Memorial Church,Christian,439994604,153.0189495,-27.4286111
place_of_worship,Roman Catholic,St. Peter,Christian,440459165,145.1207004,-37.9225489
place_of_worship,Roman Catholic,St. Benedict'S,Christian,440555705,145.0962242,-37.8485321
place_of_worship,Greek Orthodox,Greek Orthodox Parish Of Saint Paraskevi,Christian,440727868,153.0474631,-27.3484065
place_of_worship,Unknown,Taigum Community Church,Christian,440727869,153.0499177,-27.3510653
place_of_worship,Christadelphian,Kedron Brook Christadelphian,Christian,441011993,153.0155778,-27.3866136
place_of_worship,Catholic,Saint Gerard'S Catholic Church,Christian,441012085,153.0123122,-27.3805126
place_of_worship,Roman Catholic,St. Thomas More Church,Christian,443198511,145.3530264,-37.9079887
place_of_worship,Uniting,Kenmore Uniting Church,Christian,443268335,152.9448239,-27.5101471
place_of_worship,Anglican,Holy Spirit Anglican Church,Christian,443268338,152.9420798,-27.5100815
place_of_worship,Unknown,"Vietnamese Church Of Christ, Richmond",Christian,443294825,145.0043774,-37.8178672
place_of_worship,Roman Catholic,Our Lady Of Victories Church,Christian,445346971,151.6947133,-32.8883362
place_of_worship,Unknown,Sikh Gurdwara Newcastle,Sikh,445359491,151.6935346,-32.8801509
place_of_worship,Unknown,Colour City Church,Christian,447815457,149.1059116,-33.2999775
place_of_worship,Presbyterian,Clifton Hill Presbyterian Church,Christian,448150399,144.9906344,-37.7875013
place_of_worship,Anglican,St Johns Park Anglican Church,Christian,448610158,150.8994403,-33.8883258
place_of_worship,Anglican,St James Anglican Church,Christian,452334305,138.5669844,-34.9246808
place_of_worship,Catholic,Saint Columba'S,Christian,452918828,153.0179846,-27.4292514
place_of_worship,Unknown,Saint Therese Of Lisieux,Christian,452918842,153.0245037,-27.4078128
place_of_worship,Mormon,Church Of Jesus Christ,Christian,454156837,151.023222,-33.8048342
place_of_worship,Anglican,Church Of The Resurrection,Christian,454357322,144.5807655,-37.4211483
place_of_worship,Catholic,Sacred Heart Parish,Christian,455754904,145.2724545,-37.797673
place_of_worship,Anglican,Anglican Church Of Morningside,Christian,456844607,153.0745819,-27.4664235
place_of_worship,Uniting,Uniting Church Morningside,Christian,456850258,153.0704974,-27.4680899
place_of_worship,Anglican,St Edmunds Anglican Church,Christian,457308866,149.2669146,-34.7798179
place_of_worship,Uniting,Gunning Uniting Church,Christian,457308867,149.2653381,-34.7807496
place_of_worship,Unknown,Brisbane Co-Masonic Temple,Christian,457773724,153.0210603,-27.4449856
place_of_worship,Unknown,Church Of Christ Moorooka,Christian,458744950,153.0239232,-27.5305109
place_of_worship,Reformed,Wamberal Crca,Christian,460201815,151.4509338,-33.4096517
place_of_worship,Catholic,Mary Mckillop Grave,Christian,461114871,151.2049843,-33.8386869
place_of_worship,Seventh Day Adventist,Seventh Day Adventist Church,Christian,461691048,146.8864729,-36.1266364
place_of_worship,Anglican,St. Philip'S,Christian,462049588,149.1213004,-35.2627555
place_of_worship,Catholic,St Mary'S Catholic Church,Christian,462099248,143.5579244,-35.3451008
place_of_worship,Catholic,St Peter Chanel,Christian,466943114,153.5354611,-27.4266031
place_of_worship,Salvation Army,The Salvation Army Nambour,Christian,467005461,152.9605458,-26.6287566
place_of_worship,Anglican,St John Baptist Anglican Church,Christian,467005477,152.9595834,-26.6300921
place_of_worship,Anglican,St Hilary'S,Christian,467025274,145.0524392,-37.8114359
place_of_worship,Unknown,Destiny Church,Christian,469167463,145.1272331,-37.9627622
place_of_worship,Christian City Church,Bayside Church,Christian,469168613,145.0748507,-37.9600486
place_of_worship,Lutheran,Lifeway Lutheran Church,Christian,470360527,151.7394314,-32.9249698
place_of_worship,Anglican,St Matthew'S,Christian,471915744,148.7518619,-32.929593
place_of_worship,Anglican,St Matthew'S,Christian,472598810,145.0926343,-37.8652092
place_of_worship,Anglican,St Barnabas Anglican Church,Christian,474304139,149.1596129,-34.4356308
place_of_worship,Uniting,Moggill Uniting Church,Christian,474982799,152.8751258,-27.5694892
place_of_worship,Baptist,Baptist Church,Christian,475485896,150.789639,-34.5037805
place_of_worship,Unknown,"Riverside Church, Christian Outreach Centre",Christian,475568979,148.59672,-32.2414694
place_of_worship,Uniting,Uniting Church Dapto,Christian,476008869,150.7930773,-34.4949899
place_of_worship,Unknown,Energizer Life Church,Christian,476028288,147.3660792,-42.8765813
place_of_worship,Mormon,The Church Of Jesus Christ Of Latter-Day Saints,Christian,476349290,147.3627913,-42.8631692
place_of_worship,Seventh Day Adventist,Seventh Day Adventist,Christian,476349293,147.362499,-42.8668478
place_of_worship,Methodist,Methodist Church,Christian,477165811,151.5581509,-32.7347831
place_of_worship,Uniting,Karana Downs Uniting Church,Christian,478555821,152.8304518,-27.5162765
place_of_worship,Catholic,Marianist Monastery,Christian,482805056,144.4825971,-37.6828166
place_of_worship,Orthodox,Greek Free Church,Christian,488896659,144.9557874,-37.8041462
place_of_worship,Anglican,Anglican Parish Of Central Goulburn,Christian,489359420,145.1365376,-37.0261666
place_of_worship,Presbyterian,Presbyterian Church,Christian,489359421,145.1357597,-37.0260681
place_of_worship,Anglican,St Mark'S Anglican Church,Christian,490532918,149.46065,-35.42501
place_of_worship,Uniting,Croxton Uniting Church,Christian,492068617,144.9936424,-37.7595863
place_of_worship,Uniting,Christ Church Kensington,Christian,493881504,144.9275056,-37.793214
place_of_worship,Coptic Orthodox,St Mary'S Coptic Orthodox Church,Christian,493881505,144.9273511,-37.7940754
place_of_worship,Unknown,St. Christophers Chapel,Non-Denominational,497523619,150.6038499,-23.4222537
place_of_worship,Uniting,Wellers Hill Tarragindi Uniting Church,Christian,499720718,153.0442867,-27.5290294
place_of_worship,Unknown,Rydal Union Church,Christian,501845947,150.0325219,-33.4833033
place_of_worship,Anglican,All Saint'S Church,Christian,503787427,144.9927844,-37.8586354
place_of_worship,Seventh Day Adventist,Esk Seventh-Day Adventist Church,Christian,504890970,152.4124866,-27.2355582
place_of_worship,Jehovahs Witness,Jehovah'S Witness Kingdom Hall,Christian,505063811,115.7240461,-31.6660165
place_of_worship,Lutheran,The Rock Lutheran Church,Christian,506040026,152.4229489,-27.2381484
place_of_worship,Anglican,Macquarie Anglican Churches (St Dunstan'S),Christian,508029596,151.1007437,-33.7939335
place_of_worship,Salvation Army,Salvation Army,Christian,512079120,145.1148569,-37.9806141
place_of_worship,Anglican,St Anne'S Anglican,Christian,512143822,150.9559105,-33.9487669
place_of_worship,Ukrainian Orthodox,Saint Basil,Christian,514262410,151.7502393,-32.9147041
place_of_worship,Unknown,Saint Peter'S,Christian,514307042,151.7429341,-32.9246012
place_of_worship,Catholic,St Joseph'S South Yarra,Christian,517098613,144.9939804,-37.8429283
place_of_worship,Greek Orthodox,Greek Orthodox Church Of Sts Constantine And Helen,Christian,517109171,144.9933625,-37.844921
place_of_worship,Presbyterian,Presbyterian,Christian,519730657,150.4609885,-27.2760978
place_of_worship,Catholic,St Christopher'S Catholic Church,Christian,520772523,150.952118,-33.9529372
place_of_worship,Unknown,Edge Church,Christian,523606403,145.1629364,-37.7853595
place_of_worship,Uniting,Buderim Uniting Church,Christian,525456643,153.0556205,-26.6837566
place_of_worship,Anglican,Macquarie Anglican Churches (St George'S),Christian,526571805,151.0983187,-33.78191
place_of_worship,Uniting,Richmond Uniting Church,Christian,534016280,144.9985282,-37.8205855
place_of_worship,Roman Catholic,St Patrick And St Brigid,Christian,534100585,151.44689,-33.0787116
place_of_worship,Catholic,Our Lady Of Graces Catholic Church Carina,Christian,536508799,153.0896518,-27.4911434
place_of_worship,Anglican,St Stephens,Christian,537641186,150.4484611,-34.4512936
place_of_worship,Catholic,St Peter Julian Eymard Catholic Church,Christian,538213008,145.3153721,-37.7877276
place_of_worship,Catholic,St Michael'S Catholic Church,Christian,538378369,150.448912,-34.4472979
place_of_worship,Anglican,St Bartholomew The Apostle,Christian,538659979,149.3660316,-33.5808195
place_of_worship,Anglican,Christ Church,Christian,538717494,149.2558714,-33.5308754
place_of_worship,Anglican,Saint Mary'S,Christian,539909075,151.9318189,-27.5775287
place_of_worship,Unknown,Harristown Christian Assembly,Christian,539912558,151.9366082,-27.5799784
place_of_worship,Unknown,Church Of Christ,Christian,539996623,149.0857148,-33.2682815
place_of_worship,Uniting,Toorak Uniting Church,Christian,541331282,145.0196815,-37.8420906
place_of_worship,Anglican,St John'S Anglican Church,Christian,541331287,145.0147634,-37.8420567
place_of_worship,Anglican,All Saints Church,Christian,543387481,151.0089676,-33.809472
place_of_worship,Presbyterian,St Pauls,Christian,549682053,149.2550646,-33.5311402
place_of_worship,Presbyterian,Scots Presbyterian Church,Christian,558722057,145.8542027,-38.1364816
place_of_worship,Uniting,Saint Luke'S,Christian,559377212,144.3103979,-38.1690028
place_of_worship,Anglican,Milton Anglican Church,Christian,559831233,150.437044,-35.317515
place_of_worship,Unknown,Berringa Church,Christian,560381406,143.698935,-37.7769202
place_of_worship,Baptist,Albert Park/Port Melbourne Baptist Church,Christian,566508455,144.9552429,-37.8463335
place_of_worship,Catholic,St Paul'S,Christian,566510208,148.0156041,-40.1195776
place_of_worship,Unknown,Sawyers Valley Christian Fellowship,Christian,567371876,116.1968304,-31.9029561
place_of_worship,Orthodox,St Nikola Macedonian Orthodox Church,Christian,567833494,145.0242441,-37.7319058
place_of_worship,Unknown,Reservoir Mosque,Muslim,567835687,145.0313229,-37.7319441
place_of_worship,Unknown,Holy Spirit,Christian,567845593,153.36677,-27.62357
place_of_worship,Orthodox,Community Church Warragul,Christian,569942092,145.9222282,-38.1675995
place_of_worship,Presbyterian,Bethel Independent,Christian,569956354,115.90575749999999,-31.9830369
place_of_worship,Uniting,Uniting Church,Christian,571322280,144.9995578,-37.845501
place_of_worship,Anglican,St Martin'S Anglican Church,Christian,571322285,144.9996329,-37.8444674
place_of_worship,Brethren,Brethren'S Meeting Room,Christian,571382381,153.0662054,-27.4508455
place_of_worship,Anglican,Saint Phillips,Christian,571490337,115.7601554,-31.9932217
place_of_worship,Presbyterian,Auld Kirk,Christian,574256879,146.9056807,-41.2130964
place_of_worship,Orthodox,Church Of St Demetrios,Christian,575455088,145.0004401,-37.8530739
place_of_worship,Anglican,St Matthews Anglican Church,Christian,576843551,144.9927339,-37.8515451
place_of_worship,Baptist,Mentone Baptist Church,Christian,577519953,145.0724314,-37.9741836
place_of_worship,Uniting,Cloncurry Uniting Church,Christian,581892521,140.5084709,-20.7090588
place_of_worship,Catholic,St Colman'S Parish - Cloncurry,Christian,581903209,140.5058061,-20.700957
place_of_worship,Anglican,St Barnabas,Christian,582522398,148.2390222,-40.2091875
place_of_worship,Anglican,St Alban'S,Christian,583526116,148.0171121,-40.1192236
place_of_worship,Anglican,Saint Stephen'S,Christian,585074671,153.0610298,-27.5051028
place_of_worship,Interdenominational,Belgrave Heights Convention,Christian,586432408,145.3497544,-37.926617
place_of_worship,Anglican,Carlotta Tye Memorial Anglican,Christian,587613183,145.3748462,-37.9151181
place_of_worship,Roman Catholic,The Immaculate Conception Catholic Church Carcoar,Christian,587665355,149.1421809,-33.6098371
place_of_worship,Anglican,St Stephen Martyr Church,Christian,587680402,149.0726211,-33.6472865
place_of_worship,Catholic,St Ita'S Catholic Church,Christian,588389623,145.8610864,-38.1321651
place_of_worship,Anglican,St James,Christian,590113324,148.4042772,-33.9951621
place_of_worship,Unknown,Crossculture Church Of Christ,Christian,593475843,144.963903,-37.810546
place_of_worship,Baptist,Waverley Baptist Church,Christian,598493962,145.1828357,-37.891266
place_of_worship,Anglican,Saint Pauls,Christian,598781928,150.92165549999999,-31.0916281
place_of_worship,Anglican,St Andrew'S,Christian,599484540,152.157857,-32.6663386
place_of_worship,Seventh Day Adventist,Maida Vale,Christian,599501222,116.0191017,-31.9451508
place_of_worship,Evangelical,Warragul Church Of Christ,Christian,599532216,145.929203,-38.1453114
place_of_worship,Anglican,Oxley Vale Anglican Community Church,Christian,599823130,150.8952463,-31.0585352
place_of_worship,Uniting,Barwon Heads Uniting Church,Christian,600598620,144.4920467,-38.2793949
place_of_worship,Anglican,Lmap Glenbrook,Christian,600758262,150.6203381,-33.7656163
place_of_worship,Anglican,St Marks Church,Christian,602149838,147.7390525,-35.2727399
place_of_worship,Anglican,Bannaby Church,Christian,603028549,149.9931794,-34.4428982
place_of_worship,Church Of Christ,Caloundra Churches Of Christ,Christian,605287026,153.1343815,-26.7833905
place_of_worship,United Reformed,Thornbury Church Of Christ,Christian,607445300,144.9942675,-37.7569259
place_of_worship,Unknown,Elwood Shule,Jewish,608704460,144.9823477,-37.8734352
place_of_worship,Catholic,Our Lady Of The Rosary Catholic Church,Christian,610046399,153.1425724,-26.797408
place_of_worship,Anglican,St Aidans,Christian,612762775,147.1534085,-41.4388302
place_of_worship,Anglican,St Johns Church,Christian,612762787,147.1414913,-41.4397064
place_of_worship,Catholic,Our Lady'S Catholic Church,Christian,612785845,146.3223835,-36.372562
place_of_worship,Anglican,Holy Trinity Cathedral,Christian,612785951,146.3211665,-36.3551527
place_of_worship,Uniting,Uniting Church Of Wangaratta,Christian,612785989,146.3247208,-36.3529076
place_of_worship,Unknown,Weslyan Methodist Church,Christian,612786007,146.3348757,-36.350786
place_of_worship,Unknown,Enjoy,Christian,612786050,146.318682,-36.371439
place_of_worship,Uniting,Emerald Uniting Church,Christian,612900998,145.4443671,-37.9279646
place_of_worship,Brethren,Brethren'S Meeting Room,Christian,613353712,153.1023819,-27.4642612
place_of_worship,Anglican,St Matthew'S,Christian,614546536,150.5001338,-32.3694719
place_of_worship,Roman Catholic,St Josephs,Christian,615320945,150.8381768,-31.7690089
place_of_worship,Uniting,Merthyr Uniting Church,Christian,616081626,153.0443113,-27.4685187
place_of_worship,Anglican,St Oswalds,Christian,616207574,150.724425,-31.6465029
place_of_worship,Anglican,St Michael'S Anglican Church,Christian,617383880,146.2993016,-36.3547966
place_of_worship,Salvation Army,Salvation Army,Christian,617383881,146.3034665,-36.351008
place_of_worship,Seventh Day Adventist,Wangaratta Seventh-Day Adventist Church,Christian,617383918,146.304594,-36.3584749
place_of_worship,Baptist,Caloundra Baptist Church,Christian,617422388,153.1255664,-26.7931726
place_of_worship,Uniting,Caloundra Uniting Church,Christian,617422402,153.1311795,-26.7946536
place_of_worship,Unknown,All Saints Church,Christian,618015720,152.9487031,-27.3953882
place_of_worship,Presbyterian,St. Cuthberts Presbyterian Church,Christian,619128475,144.9979744,-37.9101978
place_of_worship,Uniting,Dundas West,Christian,619801951,151.04078,-33.8015493
place_of_worship,Roman Catholic,Holy Innocents,Christian,620517665,151.1533673,-30.880335
place_of_worship,Unknown,St Peters,Christian,621153826,151.0699932,-31.0200519
place_of_worship,Roman Catholic,St Marie Therese,Christian,621167516,151.0545973,-31.0560766
place_of_worship,Catholic,St Monica'S Catholic Church,Christian,622991252,144.9065557,-37.8010577
place_of_worship,Anglican,St Matthews,Christian,623046744,149.5459288,-32.0182453
place_of_worship,Unknown,Blue Mountains City Church,Christian,627473204,150.6294114,-33.7316281
place_of_worship,Anglican,St Raphael'S Church (Anglican),Christian,628524378,147.2598131,-42.9218696
place_of_worship,Baptist,Glenbrook Baptist Church,Christian,631493703,150.6178451,-33.7614178
place_of_worship,Greek Orthodox,Saint Demetrios,Christian,632032285,149.2314438,-35.3452328
place_of_worship,Catholic,St. Bernard'S Catholic Church,Christian,632237672,144.3240492,-38.1855461
place_of_worship,Catholic,St Brigid'S Church,Christian,632349501,144.9764452,-37.7922357
place_of_worship,Anglican,Holy Trinity Anglican Church,Christian,633025176,144.4040165,-38.0179907
place_of_worship,Baptist,Lifeway Christian Church,Christian,633182561,144.4059098,-38.0176679
place_of_worship,Anglican,Anglican Church,Christian,633191333,149.237516,-35.3548607
place_of_worship,Church Of Christ,Monash City Church Of Christ,Christian,633904457,145.1621191,-37.8810591
place_of_worship,Baptist,Grace Baptist Community Church,Christian,634146400,145.1445841,-37.9020169
place_of_worship,Macedonian Orthodox,Macedonian Church,Christian,634146406,149.235423,-35.3545073
place_of_worship,Catholic,Assumption Church,Christian,634800746,149.5656875,-33.4124381
place_of_worship,Catholic,Holy Family,Christian,637944162,150.471222,-35.3563919
place_of_worship,Uniting,Uniting Church,Christian,638075574,149.235316,-35.3556934
place_of_worship,Catholic,St Mary'S Star Of The Sea,Christian,638148894,150.4310906,-35.3108981
place_of_worship,Anglican,St Martins,Christian,638148900,150.4737575,-35.3566876
place_of_worship,Lutheran,Lutheran Calvary Church,Christian,643947284,152.9584131,-26.8979369
place_of_worship,Unknown,Christian Reformed Church Of Blaxland,Christian,644584327,150.6299256,-33.747329
place_of_worship,Anglican,Drouin Anglican Church,Christian,644654309,145.8537078,-38.1344875
place_of_worship,Church Of Christ,Lifestreams Christian Church,Christian,645749413,115.8737797,-32.0009555
place_of_worship,Unknown,Chapel,Multifaith,648757811,152.9528847,-26.8206645
place_of_worship,Catholic,Sacred Heart Catholic Church,Christian,648880718,145.2241361,-36.4396801
place_of_worship,Presbyterian,Belconnen Presbyterian Church,Christian,651012029,149.0405035,-35.2329694
place_of_worship,Unknown,Hindu Temple And Cultural Centre,Hindu,651064349,149.055799,-35.2270031
place_of_worship,Greek Orthodox,Greek Orthodox Church Of Our Lady Of Myrtles,Christian,652258185,146.3236501,-36.3752222
place_of_worship,Salvation Army,Belconnen Salvation Army,Christian,652960508,149.0393825,-35.2335772
place_of_worship,Baptist,Belconnen Baptist Church,Christian,652960563,149.0513102,-35.2385225
place_of_worship,Baptist,Dickson Memorial Baptist Church,Christian,655518690,149.1405411,-35.249951
place_of_worship,Anglican,All Saint'S Anglican Church,Christian,655524237,149.1394521,-35.2647436
place_of_worship,Unknown,Ainslie Church Of Christ,Christian,655528252,149.1402675,-35.2689571
place_of_worship,Unknown,Wat Dhammadharo,Buddhist,655580461,149.1199148,-35.2440804
place_of_worship,Ukrainian Greek Catholic,Ukrainian Catholic Centre,Christian,655587709,149.1176533,-35.2438692
place_of_worship,Roman Catholic,St Bridgid'S Church,Christian,655591184,149.1424132,-35.2548573
place_of_worship,Uniting,St Margaret'S Uniting Church,Christian,657789017,149.1552721,-35.2474602
place_of_worship,Unknown,Buddhist Society Of The Act,Buddhist,658959570,149.1473681,-35.3397057
place_of_worship,Anglican,St. Marks Church,Christian,659126049,145.4374005,-37.9325376
place_of_worship,Catholic,St Brendan'S Church,Christian,660131255,145.4067959,-36.3743968
place_of_worship,Russian Orthodox,Holy Virgin'S Protection,Christian,660911846,144.9891261,-37.8440546
place_of_worship,Unknown,Christian City Church Fremantle,Christian,662712349,115.7590636,-32.0725246
place_of_worship,Anglican,All Saints Anglican,Christian,665793125,152.596684,-27.5656921
place_of_worship,Unknown,Brisbane Mosque,Muslim,667941215,153.0756712,-27.5272955
place_of_worship,Unknown,Bathurst Christian Outreach Centre,Christian,668184711,149.5773134,-33.4293287
place_of_worship,Salvation Army,Bathurst Corps,Christian,668184713,149.5704033,-33.4164565
place_of_worship,Lutheran,Bathurst Redeemer Lutheran Church,Christian,668184726,149.5779601,-33.4114656
place_of_worship,Uniting,O'Connor Uniting Church,Christian,669492366,149.12136279999999,-35.2550674
place_of_worship,Catholic,St Joseph'S Church,Christian,672567804,144.703225,-36.3650838
place_of_worship,Catholic,St Marys Church,Christian,677379768,149.8520861,-33.4296176
place_of_worship,Catholic,Polish Church,Christian,678143098,115.894164,-31.9309855
place_of_worship,Uniting,Ashfield Uniting,Christian,680288556,151.1272667,-33.8902427
place_of_worship,Unknown,Bread Of Life Christian Church In Sydney,Christian,680308709,151.1258969,-33.8900191
place_of_worship,Catholic,Immaculate Heart Of Mary,Christian,681603683,115.7674777,-31.8936344
place_of_worship,Baptist,Baptist Church,Christian,683088317,152.1522423,-32.6624411
place_of_worship,Exclusive Brethren,Exclusive Brethren,Christian,685188964,147.5935293,-37.8194772
place_of_worship,Presbyterian,Presbyterian Church,Christian,686238659,150.614865,-33.67327
place_of_worship,Catholic,Holland Park Mt Gravatt Parish,Christian,687288455,153.0729334,-27.5317037
place_of_worship,Unknown,St. John The Theologian Chapel,Christian,687545410,114.9939019,-33.9774577
place_of_worship,Anglican,Church Of The Holy Name Anglican Church,Christian,688359428,145.1819602,-37.8568767
place_of_worship,Protestant,St Peters Parish Hall,Christian,692959842,153.3814933,-27.6480941
place_of_worship,Anglican,Saint Saviour'S Anglican Church,Christian,692994989,145.6349005,-16.8196514
place_of_worship,Anglican,Saint Nicholas Church,Christian,694183250,115.1108002,-21.6367926
place_of_worship,Anglican;Uniting,Emmanuel Anglican And Uniting Church,Christian,697232652,146.8605238,-36.1251475
place_of_worship,Presbyterian,St Margaret'S Presbyterian Church Blaxland,Christian,698087702,150.6084378,-33.7419316
place_of_worship,Unknown,New Life Church Of Christ,Christian,698157291,146.8913479,-36.1287311
place_of_worship,Unknown,Latrobe Chapel,Christian,699435599,152.9921927,-27.4593047
place_of_worship,Anglican,Glasshouse Country Anglican Church,Christian,699491942,152.9426495,-26.8579292
place_of_worship,Unknown,Church On The Rise,Christian,699491946,152.9514371,-26.8578824
place_of_worship,Uniting,Glasshouse Country Uniting Church,Christian,699491949,152.9598528,-26.8718083
place_of_worship,Baptist,Glasshouse Country Baptist Church,Christian,699491956,152.9522239,-26.8615533
place_of_worship,Anglican,St Barnabas Anglican Church,Christian,699516701,153.0008477,-27.4512229
place_of_worship,Anglican,St Johns Anglican Church,Christian,703160346,149.1404248,-35.2876311
place_of_worship,Greek Orthodox,The Presentation Of Our Lord,Christian,703553414,144.9639239,-37.743085
place_of_worship,Catholic,St Augustine'S Church,Christian,704252900,145.0442407,-36.3093405
place_of_worship,Catholic,St Thomas Catholic Church,Christian,704424907,142.9100138,-38.2405451
place_of_worship,Presbyterian,Thomson Memorial Presbyterian Church,Christian,704425491,142.9113173,-38.2409033
place_of_worship,Uniting,Timboon Uniting Church,Christian,704796354,142.9735739,-38.4834087
place_of_worship,Presbyterian,Sunshine Presbyterian Church,Christian,707018336,144.8279217,-37.7840856
place_of_worship,Uniting,Greystanes Uniting Church,Christian,711136339,150.9492856,-33.831448
place_of_worship,Catholic,St Bernadette Church,Christian,718622840,145.0349999,-37.7625083
place_of_worship,Unknown,Mitcham Baptist,Christian,722326655,145.190857,-37.8193819
place_of_worship,Roman Catholic,St Patrick'S Church,Christian,732562142,143.9169183,-35.7262479
place_of_worship,Catholic,Sacred Heart Somerset,Christian,737256491,145.832063,-41.043095
place_of_worship,Uniting,Uniting Church Neville,Christian,745479465,149.2168081,-33.7104006
place_of_worship,Baptist,West Ryde Baptist Church,Christian,745486287,151.0844522,-33.8074103
place_of_worship,Unknown,Shri Shiva Vishnu Temple,Hindu,746895743,145.1773099,-38.0832586
place_of_worship,Seventh Day Adventist,Samoan Carrum Downs Seventh-Day Adventist Church,Christian,746910506,145.1892447,-38.0703982
place_of_worship,Unknown,Mosque,Muslim,748724107,144.9166015,-37.6338566
place_of_worship,Roman Catholic,St Kieran'S,Christian,762760667,151.2674176,-33.7823927
place_of_worship,Roman Catholic,St Joseph'S Catholic Church,Christian,762983968,152.9602404,-26.6300625
place_of_worship,Uniting,Centre For Theology And Ministry,Christian,763661371,144.96165009999999,-37.7926088
place_of_worship,Anglican,Worship Center,Christian,764736364,147.304872,-42.859235
place_of_worship,Presbyterian,Bowenfels Presbyterian Church,Christian,764757427,150.1219673,-33.5111099
place_of_worship,Anglican,St Marks Anglican Church,Christian,768258610,148.375595,-34.4647479
place_of_worship,Unknown,Youth With A Mission,Christian,769480466,115.8712694,-31.9480574
place_of_worship,Uniting,Tea Gardens Uniting Church,Christian,772341988,152.1562453,-32.6638193
place_of_worship,Unknown,Fawkner Mosque,Muslim,774464775,144.9713771,-37.7049038
place_of_worship,Presbyterian,Scots - Clayfield,Christian,775914934,153.049342,-27.4224343
place_of_worship,Uniting,Port Hedland Uniting Church,Christian,778184940,118.6316962,-20.3043222
place_of_worship,Baptist,Upwey Baptist Church,Christian,798469426,145.3326471,-37.9036628
place_of_worship,Anglican,Chapel Of St Mary & St George,Christian,798470854,115.98123,-31.8947891
place_of_worship,Anglican,Church Of The Holy Spirit,Christian,800398826,145.3288694,-37.903370699999996
place_of_worship,Uniting,Glebe Road Uniting Church,Christian,811151071,152.7856682,-27.6169998
place_of_worship,Uniting,Trinity Uniting Church,Christian,816232880,152.7852881,-27.6078696
place_of_worship,Reformed,Sydney Reformed,Christian,819907412,151.1334193,-33.8035957
place_of_worship,Catholic,Little Flower Catholic Church,Christian,821494008,153.1634739,-27.0833165
place_of_worship,Baptist,Bribie Island Baptist Church,Christian,821581511,153.1587557,-27.0781121
place_of_worship,Pentecostal,Westside Christian Church,Christian,821679379,151.9409392,-27.5724824
place_of_worship,Presbyterian,Inglewood Presbyterian Church,Christian,821822961,151.0822458,-28.4163242
place_of_worship,Catholic,Our Lady Of The Southern Cross Church,Christian,821822963,151.080554,-28.4135342
place_of_worship,Anglican,St John'S,Christian,821822965,151.0818285,-28.4134962
place_of_worship,Pentecostal,Spring Street Christian Church,Christian,825410535,151.9483229,-27.6014714
place_of_worship,Unknown,Northridge Vineyard Christian Fellowship,Christian,830105810,151.0812311,-33.7219194
place_of_worship,Uniting,Cherrybrook Uniting Church,Christian,830116572,151.0428551,-33.7306294
place_of_worship,Anglican,Corrimal Anglican Church,Christian,834024105,150.897595,-34.3685706
place_of_worship,Uniting,Morayfield Community Uniting Church,Christian,834848405,152.9705456,-27.1074679
place_of_worship,Uniting,Elimbah Uniting,Christian,834966406,152.9441788,-27.0124003
place_of_worship,Lutheran,St Pauls,Christian,834975125,152.9338036,-27.0723459
place_of_worship,Uniting,Caboolture Uniting,Christian,834976850,152.9314516,-27.0775213
place_of_worship,Anglican,Holy Trinity Anglican Church,Christian,836085522,144.9016021,-37.8601894
place_of_worship,Anglican,Holy Trinity Anglican Church,Christian,838296496,150.996632,-33.764974
place_of_worship,Presbyterian,Tamborine Mt Presbyterian Church,Christian,838806302,153.1851687,-27.9242492
place_of_worship,Catholic,St John The Baptist Catholic Church,Christian,840160461,153.1753929,-27.9275739
place_of_worship,Uniting,Forest Reefs Uniting Church,Christian,841484907,149.08749,-33.4687735
place_of_worship,Uniting,Saint Lukes Uniting Church Robinvale,Christian,841775315,142.7747051,-34.5890331
place_of_worship,Anglican,Saint Peters Anglican Church Robinvale,Christian,841775422,142.7723504,-34.589572
place_of_worship,Seventh Day Adventist,Seventh Day Adventist Church,Christian,841777367,142.7722182,-34.5864517
place_of_worship,Anglican,St George'S Anglican Church,Christian,842156666,153.1949068,-27.9262204
place_of_worship,Uniting,Holland Park Uniting Church,Christian,845466793,153.0629358,-27.5201186
place_of_worship,Uniting,Northmead Uniting Church,Christian,847354465,150.9937734,-33.7890888
place_of_worship,Catholic,St . Therese Catholic Church,Christian,847653928,144.3161016,-38.3310193
place_of_worship,Uniting,Uniting Church,Christian,848692544,144.3207791,-38.3337199
place_of_worship,Jehovahs Witness,Kingdom Hall Of Jehovah'S Witnesses,Christian,848692545,144.3153091,-38.3250092
place_of_worship,Lutheran,St. Davids Lutheran Church,Christian,848692913,144.2707149,-38.2769264
place_of_worship,Uniting,Capalaba Uniting Church,Christian,849221008,153.2012115,-27.5374429
place_of_worship,Apostolic,Apostolic Church Of Queensland,Christian,849448555,152.4527781,-27.5615893
place_of_worship,Anglican,Christ Church Birregurra,Christian,849463380,143.7871918,-38.3416788
place_of_worship,Uniting,Uniting Church Birregurra,Christian,849463652,143.7893673,-38.3399052
place_of_worship,Catholic,St. Peters Church,Christian,849463722,143.7884794,-38.3408218
place_of_worship,Baptist,Torquay Christian Fellowship,Christian,849464095,144.3189514,-38.3324272
place_of_worship,Anglican,St. Lukes Church,Christian,849464240,144.3229197,-38.3356329
place_of_worship,Uniting,St Andrews Uniting Church,Christian,850450892,142.9372092,-37.2839811
place_of_worship,Evangelical,Bathurst Evangelical Church,Christian,856664479,149.5689221,-33.4327806
place_of_worship,Anglican,Oak Flats Anglican Church,Christian,857789799,150.8204794,-34.564072
place_of_worship,Unknown,Saint Mark The Evangelist Anglican Church,Christian,871793074,145.8792361,-34.807938
place_of_worship,Unknown,Catholic,Christian,871793176,145.8795333,-34.804394
place_of_worship,Unknown,Uniting,Christian,871793217,145.8820269,-34.8049901
place_of_worship,Uniting,Neill Street Uniting Church,Christian,873841941,143.8608491,-37.5509698
place_of_worship,Unknown,St Clement'S Anglican Church,Christian,874976711,147.3125581,-42.9754631
place_of_worship,Catholic,St Patrick'S,Christian,880552461,145.3840757,-17.3794688
place_of_worship,Baptist,Yeoval District Baptist Church,Christian,880594313,148.6489191,-32.7509902
place_of_worship,Catholic,St Josephs Catholic,Christian,883823328,145.4779771,-17.2653218
place_of_worship,Anglican,Anglican,Christian,883823729,145.4781941,-17.2671702
place_of_worship,Coptic Orthodox,St John The Baptist And St Elijah The Prophet,Christian,884062279,148.5900032,-32.2501474
place_of_worship,Catholic,Holy Name Of Jesus,Christian,891861442,148.8273166,-32.3998416
place_of_worship,Anglican,St Matthews,Christian,891861456,148.830782,-32.3965894
place_of_worship,Roman Catholic,Roman Catholic Chapel,Christian,893718805,145.5716104,-37.918832
place_of_worship,Uniting,Port Adelaide,Christian,899986740,138.5075513,-34.8468291
place_of_worship,Uniting,Sunnybank Uniting Church,Christian,900416388,153.0568579,-27.6001955
place_of_worship,Free Reformed Churches Of Australia,Free Reformed Church Of Albany,Christian,902767598,117.871254,-35.0044477
place_of_worship,Anglican,Church Of St John The Divine,Christian,903703885,142.1996621,-36.7114439
place_of_worship,Unknown,Horsham Church Of Christ,Christian,903703886,142.2018539,-36.711469
place_of_worship,Anglican,St Paul'S,Christian,909429770,138.7484386,-34.887538
place_of_worship,Catholic,St Pauls,Christian,910305305,153.1108624,-27.6354706
place_of_worship,Methodist,The Methodist Church Of Samao In Queensland,Christian,916272937,152.9784037,-27.268448
place_of_worship,Uniting,Uniting Church,Christian,922270559,153.1990307,-27.7240171
place_of_worship,Unknown,Chandler Street Church,Christian,928135211,149.0695557,-35.2380264
place_of_worship,Assemblies Of God,Forster Christian Life Centre,Christian,931320447,152.5244688,-32.2094056
place_of_worship,Unknown,West Lakes Church: Bridging The Gap,Christian,932470172,138.4901332,-34.8602738
place_of_worship,Unknown,Sydwest Asian Christian Church,Christian,936115858,150.9342885,-33.8929511
place_of_worship,Lutheran,St Paul'S Lutheran Church,Christian,936409848,151.2129414,-33.8755087
place_of_worship,Anglican,All Saints Anglican Church,Christian,937436956,151.1113925,-33.7042724
place_of_worship,Catholic,Our Lady Of The Rosary Catholic Church,Christian,937439317,151.1044515,-33.7139694
place_of_worship,Salvation Army,Colac Salvation Army,Christian,937546138,143.5840085,-38.3380241
place_of_worship,Baptist,South Valley Baptist Church,Christian,938142776,144.3163917,-38.1959027
place_of_worship,Uniting,Goodna Uniting Church,Christian,939048783,152.8950164,-27.6086676
place_of_worship,Uniting,North Ipswich Uniting Church,Christian,939048788,152.7490694,-27.5874861
place_of_worship,Uniting,Haigslea Uniting Church,Christian,939048789,152.6303668,-27.5711499
place_of_worship,Anglican,St Mary'S Church,Christian,939061813,152.8926025,-26.6881181
place_of_worship,Uniting,Kawana Uniting Church,Christian,939061845,153.1316441,-26.7364433
place_of_worship,Catholic,St Patrick'S Cathedral,Christian,950966082,151.00314,-33.8086082
place_of_worship,Unknown,Scientology,Scientologist,954684033,149.1298556,-35.2786367
place_of_worship,Catholic,Christ The King Catholic Church Braybrook,Christian,955893506,144.8616537,-37.7865699
place_of_worship,Roman Catholic,St Dominics Catholic Church,Christian,964850429,149.9812264,-32.856378
place_of_worship,Anglican,Saint Johns Church,Christian,965893195,152.6635254,-27.8087227
place_of_worship,Jehovahs Witness,Jehovahs Witness,Christian,965907098,152.6697739,-27.8092693
place_of_worship,Presbyterian,St Johns,Christian,966774024,150.8905426,-32.2611514
place_of_worship,Catholic,Saint Marys,Christian,968589860,153.1649129,-28.0206931
place_of_worship,Uniting,Canungra Uniting Church,Christian,968589866,153.1658729,-28.019928
place_of_worship,Anglican,St Paul'S,Christian,968687671,150.8321551,-31.7644865
place_of_worship,Anglican,St Johns,Christian,975713740,151.496455,-30.6430377
place_of_worship,Anglican,St Stephens Anglican Church,Christian,978208552,152.7149363,-30.3388125
place_of_worship,Uniting,Uniting Church,Christian,978208559,152.7126057,-30.342102099999998
place_of_worship,Anglican,St Barnabas Church,Christian,983328187,152.9464772,-31.027851
place_of_worship,Anglican,St Mark'S Anglican Church,Christian,984955293,151.0180086,-33.9464211
place_of_worship,Lutheran,Bethleham Lutheran Church,Christian,987204585,153.3257913,-27.7459137
place_of_worship,Greek Orthodox,All Saints,Christian,988536912,149.1035048,-35.2214519
place_of_worship,Anglican,St Simons,Christian,988537092,149.1050926,-35.2205754
place_of_worship,Baptist,Wingham Baptist Church,Christian,988702949,152.3608247,-31.8677021
place_of_worship,Uniting,Manning Uniting Church,Christian,990051754,152.5166273,-31.8974287
place_of_worship,Unknown,Taree Community Of Christ Church,Christian,990051885,152.4557532,-31.9109555
place_of_worship,Uniting,Black Rock Uniting Church,Christian,992109494,145.0219667,-37.9764257
place_of_worship,Anglican,St Margaret'S Anglican Church,Christian,992128419,145.6490019,-35.9175192
place_of_worship,Catholic,St Joseph'S Catholic Church,Christian,992151634,145.6509927,-35.9174932
place_of_worship,Uniting,Cobram Uniting Church,Christian,992535629,145.6518062,-35.9180726
place_of_worship,Anglican,St Mark'S,Christian,992638662,152.5932437,-31.911903
place_of_worship,Uniting,Uniting Church,Christian,1000729896,150.3893916,-23.646442
place_of_worship,Presbyterian,Saint Enoch,Christian,1000729903,150.3893058,-23.6442749
place_of_worship,Uniting,Kialla Uniting Church,Christian,1001695089,149.479584,-34.5553289
place_of_worship,Uniting,Uniting Church,Christian,1002400606,151.9598246,-32.0039723
place_of_worship,Unknown,Christian Outreach Centre,Christian,1002400608,151.9672812,-32.0018251
place_of_worship,Presbyterian,Presbyterian Church,Christian,1002400611,151.9609498,-32.005297
place_of_worship,Roman Catholic,"St Mary'S, Trentham",Christian,1003289412,144.3267299,-37.3892149
place_of_worship,Uniting,Trentham Uniting Church,Christian,1003289414,144.3229855,-37.3905021
place_of_worship,Anglican,Trentham Anglican Church,Christian,1003289415,144.3242086,-37.3889677
place_of_worship,Anglican,Old Anglican Church,Christian,1010138858,152.683017,-27.9992545
place_of_worship,Anglican,Christ Church,Christian,1010138862,152.683296,-27.9992924
place_of_worship,Anglican,St Lukes,Christian,1010812631,150.862415,-32.0502409
place_of_worship,Uniting,St Andrews,Christian,1010812829,150.8687987,-32.0524642
place_of_worship,Anglican,St Matthias,Christian,1012309623,150.6886879,-32.3919952
place_of_worship,Unknown,Chinese Church Of Christ,Christian,1017442397,144.963949,-37.804516
place_of_worship,Baptist,Gateway Baptist,Christian,1019436955,153.1311768,-27.5442539
place_of_worship,Unknown,Logos Brisbane Christ Church,Christian,1019436958,153.1383673,-27.5449008
place_of_worship,Uniting,Uniting Church Glen Forbes,Christian,1024769917,145.5669137,-38.4801059
place_of_worship,Unknown,Mar Thoma Church,Christian,1025525886,144.9581347,-37.7913242
place_of_worship,Catholic,Saint Carthages,Christian,1025526342,144.9578807,-37.7933051
place_of_worship,Presbyterian,Portland Presbyterian Church,Christian,1030781633,149.9787812,-33.3540502
place_of_worship,Unknown,Ormeau Community Church,Christian,1034596463,153.2667896,-27.7937598
place_of_worship,Catholic,St Patrick'S Catholic Church,Christian,1037195030,150.1547213,-33.4836877
place_of_worship,Baptist,Lithgow Baptist Church,Christian,1038230539,150.135663,-33.4850247
place_of_worship,Uniting,Upper Caboolture Uniting Church,Christian,1047483343,152.8949981,-27.1074295
place_of_worship,Roman Catholic,St Patrick'S Catholic Church Macedon,Christian,1055880923,144.5663056,-37.4225651
place_of_worship,Catholic,Holy Rosary,Christian,1072328486,144.9284888,-37.7948983
place_of_worship,Uniting,Seaford Uniting Church,Christian,1076842080,145.1286762,-38.1031552
place_of_worship,Community Church,Village Avenue Community Church (Vacc),Christian,1080163343,153.0390347,-27.5695793
place_of_worship,Assemblies Of God,Shiloh Christian Church,Christian,1081526465,152.8878635,-27.6245674
place_of_worship,Seventh Day Adventist,Warburton Seventh-Day Adventist Church,Christian,1083014701,145.7001498,-37.7529724
place_of_worship,Uniting,St David'S Uniting Church,Christian,1110197493,144.9444764,-37.7628526
place_of_worship,Uniting,March Uniting Church,Christian,1112786628,149.0934781,-33.2134078
place_of_worship,Uniting,Beachport Uniting Church,Christian,1112951825,140.0132295,-37.4841038
place_of_worship,Baptist,West Orange Baptist Church,Christian,1112971868,149.0810702,-33.2685555
place_of_worship,Anglican,St John Evangelist,Christian,1112998649,149.161047,-33.34465
place_of_worship,Lutheran,Good News Lutheran Church,Christian,1114597894,152.9282286,-27.5552222
place_of_worship,Anglican,Saint Davids Anglican Church,Christian,1118050052,152.862635,-28.2102846
place_of_worship,Anglican,St Paul The Apostle,Christian,1124812194,149.1407283,-33.6098272
place_of_worship,Presbyterian,Scots Presbyterian Church,Christian,1125615415,150.8551678,-34.6704019
place_of_worship,Unknown,The Source,Christian,1148542138,138.7153664,-35.0032297
place_of_worship,Anglican,Saint Clements Anglican Church,Christian,1160953195,151.2398222,-33.8334503
place_of_worship,Baptist,Epping Baptist Church,Christian,1170757240,151.0798198,-33.7709852
place_of_worship,Anglican,St Andrews Cronulla,Christian,1190829692,151.1497015,-34.0507321
place_of_worship,Catholic,Our Lady Help Of Christians,Christian,1213287267,142.5211135,-38.3849303
place_of_worship,Catholic,St Patrick'S Church,Christian,1214421479,145.4737477,-38.069462
place_of_worship,Catholic,St Peter'S Catholic Church,Christian,1214806828,145.0461745,-38.4229394
place_of_worship,Roman Catholic,St Pius X Catholic Church,Christian,1223071289,152.5687341,-28.8876459
place_of_worship,Unknown,Tailrace Centre,Christian,1223714413,147.1115639,-41.4211145
place_of_worship,Anglican,All Saints Church,Christian,1227326142,116.0041633,-31.7958721
place_of_worship,Anglican,St Paul'S Anglican Church,Christian,1228168645,150.1581014,-33.4797899
place_of_worship,Unknown,South Coast City Church,Christian,1228960880,150.8545902,-34.5958054
place_of_worship,Anglican,St. Margaret'S Anglican Church,Christian,1231769388,153.0667886,-27.3207968
place_of_worship,Anglican,Holy Trinity Hampton Park,Christian,1239734922,145.2578855,-38.0312992
place_of_worship,Baptist,Peace Baptist Church,Christian,1240671258,150.5332702,-23.32983
place_of_worship,Unknown,Cathedral Of Praise,Christian,1240671438,150.5159941,-23.3288551
place_of_worship,Lutheran,St. John'S,Christian,1240851908,152.544907,-27.5693628
place_of_worship,Anglican,All Saints Church,Christian,1240978208,150.5323096,-23.3541821
place_of_worship,Presbyterian,Kingsley Presbyterian Church,Christian,1242795010,115.8053261,-31.8185717
place_of_worship,Anglican,St. Andrews Somerville,Christian,1247896827,145.1742598,-38.2232461
place_of_worship,Anglican,St John'S Anglican Church,Christian,1257803622,144.2275027,-37.5987158
place_of_worship,Catholic,St Brigid'S Catholic Church,Christian,1257803661,144.2288166,-37.5997729
place_of_worship,Uniting,Coopernook Uniting Church,Christian,1259077929,152.6137619,-31.8227917
place_of_worship,Unknown,Tamrookum Church (All Saints Memorial Church),Christian,1259472966,152.9226695,-28.1235872
place_of_worship,Baptist,Newstead Baptist Church,Christian,1260516436,147.1604203,-41.4460881
place_of_worship,Pentecostal,Assembly Of God,Christian,1260653055,144.7148224,-36.3577774
place_of_worship,Anglican,Christ Church St Ives,Christian,1260774430,151.1564391,-33.7312653
place_of_worship,Seventh Day Adventist,Melbourne Asian Seventh-Day Adventist Church,Christian,1262941127,145.1822668,-37.841847
place_of_worship,Lutheran,Bethlehem Lutheran Church,Christian,1266488307,147.1446669,-41.4443951
place_of_worship,Exclusive Brethren,Exclusive Brethren,Christian,1269987228,145.3620862,-37.7733572
place_of_worship,Uniting,Pilgrim Uniting Church,Christian,1270905594,147.1368294,-41.4366439
place_of_worship,Anglican,St. Augustines Church,Christian,1271726810,149.8814343,-27.3254974
place_of_worship,Catholic,St. Margaret Mary Catholic Church,Christian,1271726817,149.8789988,-27.3230382
place_of_worship,Assemblies Of God,Assembly Of God Church,Christian,1271726893,149.8809085,-27.3261455
place_of_worship,Unknown,Glenmorgan Community Church,Christian,1271737005,149.6751842,-27.2480544
place_of_worship,Unknown,Jackson Church,Christian,1273891832,149.6218505,-26.64394
place_of_worship,Lutheran,St Pauls Lutheran Church,Christian,1277849270,150.8920894,-28.6784229
place_of_worship,Uniting,Yangan Uniting Church,Christian,1277936354,152.2146475,-28.1968233
place_of_worship,Anglican,Saint Peters Anglican Church,Christian,1277936356,152.2120082,-28.1962465
place_of_worship,Uniting,Caringbah Uniting Church,Christian,1283592044,151.1215914,-34.0356715
place_of_worship,Uniting,Cronulla South Uniting Church,Christian,1283595219,151.1521525,-34.0650041
place_of_worship,Unknown,Our Lady Of Fatima Church,Christian,1294141254,151.1224195,-34.0450507
place_of_worship,Unknown,Unity Church,Christian,1294550550,142.4128613,-36.0763558
place_of_worship,Coptic,"St Mary, St Bakhomios & St Shenouda Coptic Church",Christian,1295652588,151.076163,-34.0346571
place_of_worship,Roman Catholic,St Francis,Christian,1312610263,151.1628049,-33.8727817
place_of_worship,Catholic,Catholic Church Of The Good Shepherd,Christian,1314030207,138.8928012,-33.4096413
place_of_worship,Roman Catholic,Calvary Church,Christian,1314753276,153.4411742,-28.0648615
place_of_worship,Presbyterian,Presbyterian Church,Christian,1323059810,142.4850153,-38.3779504
place_of_worship,Roman Catholic,Anzac Memorial Chapel Of St Paul (Rmc Chapel),Christian,1329560193,149.1680712,-35.2963973
place_of_worship,Catholic,St Joseph'S Catholic Church,Christian,1330880877,138.6100619,-32.7362304
place_of_worship,Unknown,The Body Of Christ Ministry Centre,Christian,1349039946,153.4078095,-28.1014967
place_of_worship,Catholic,St Michael'S,Christian,1350993273,150.9013995,-33.7904529
place_of_worship,Catholic,Croatian Church Of Our Lady,Christian,1350996688,150.8843889,-33.7827404
place_of_worship,Greek Orthodox,St Paraskevi,Christian,1350996697,150.9017493,-33.774778
place_of_worship,Anglican,St. Katherine'S,Christian,1351239670,145.1277877,-37.6916156
place_of_worship,Unknown,Spence Musalla,Muslim,1353702426,149.0653027,-35.1981058
place_of_worship,Unknown,Hobart City Church Of Christ,Christian,1354294760,147.3235022,-42.8841958
place_of_worship,Pentecostal,Centro Centre,Christian,1363186577,153.1928091,-27.7371288
place_of_worship,Uniting,Balnarring Uniting Church,Christian,1368583891,145.126033,-38.3757007
place_of_worship,Anglican,St. Marks Anglican,Christian,1368583931,145.1268264,-38.3730008
place_of_worship,Anglican,St. John'S Norton Summit,Christian,1373708358,138.7243043,-34.9221281
place_of_worship,Anglican,St Johns Anglican Church,Christian,1390922993,138.6160168,-34.9323424
place_of_worship,Christadelphian,Christadelphian Temple,Christian,1390951197,138.6042771,-34.9329086
place_of_worship,Baptist,Baptist Community Church,Christian,1391952513,142.021937,-37.744733
place_of_worship,Baptist Union Of Victoria,Beaconsfield Baptist Church,Christian,1406755889,145.3758414,-38.0533773
place_of_worship,New Apostolic,New Apostolic Church Townsville,Christian,1414477777,146.7904755,-19.2940657
place_of_worship,Roman Catholic,St Paul Of The Cross,Christian,1417066815,138.6193423,-35.0273082
place_of_worship,Catholic,St Paul'S,Christian,1427891994,140.782695,-37.8268851
place_of_worship,Unknown,Lifespring Church,Christian,1428598728,145.1773582,-37.8126817
place_of_worship,Catholic,St Mary'S,Christian,1430091306,146.2422213,-26.4037203
place_of_worship,Unknown,One Community Church,Christian,1430554968,145.155756,-37.8155203
place_of_worship,Jehovahs Witness,Kingdom Hall,Christian,1431076594,117.873567,-35.0096067
place_of_worship,Unknown,Glory To The King,Christian,1432012281,146.2706248,-38.3850794
place_of_worship,Unknown,Yarra Plenty Church,Christian,1432376907,145.0423011,-37.7492323
place_of_worship,Baptist,Westgarth Baptist Church,Christian,1434206940,145.006356,-37.7800194
place_of_worship,Uniting,Habitat Uniting Church,Christian,1435393161,145.0416563,-37.8241491
place_of_worship,Anglican,St Georges Anglican Church,Christian,1437207171,147.5632159,-42.7839423
place_of_worship,Seventh Day Adventist,Bendigo Seventh-Day Adventist Church,Christian,1437990531,144.2538541,-36.7756802
place_of_worship,Unknown,"Northern District Chinese Christian Church, Sydney",Christian,1438265463,151.1006721,-33.7600582
place_of_worship,Lutheran,Good Shepherd Lutheran Church,Christian,1446739513,146.505564,-38.197298
place_of_worship,Roman Catholic,St Martins Catholic Church,Christian,1447847113,145.0768396,-37.7355023
place_of_worship,Catholic,St John Catholic Church,Christian,1447851335,145.0664012,-37.7578803
place_of_worship,Anglican,St John'S Church,Christian,1447853506,145.0721432,-37.7566498
place_of_worship,Presbyterian,Heidelberg Presbyterian Church,Christian,1447856574,145.0652982,-37.7542514
place_of_worship,Catholic,St. Marys Catholic Church,Christian,1449204525,144.7421994,-38.3409545
place_of_worship,Unknown,Trinity Methodist Church,Christian,1453199439,145.235475,-37.9875834
place_of_worship,Unknown,Doveton Baptist Church,Christian,1453200035,145.2383821,-37.9878802
place_of_worship,Christian Outreach Centre,Citilife Church,Christian,1459491296,151.9502449,-27.6005493
place_of_worship,Anglican,Holy Trinity Church,Christian,1479928962,145.0340246,-37.8052243
place_of_worship,Lutheran,Nildottie Lutheran Church,Christian,1482135692,139.6515902,-34.6801817
place_of_worship,Seventh Day Adventist,Samoan Seventh Day Adventist Church,Christian,1485354660,153.2163876,-27.6649611
place_of_worship,Anglican,St Matthias' Church,Christian,1490093168,149.5114341,-34.9847341
place_of_worship,Methodist,Yarraberb Methodist Church,Christian,1490174345,144.0624891,-36.6040451
place_of_worship,Presbyterian,Saint Andrew'S,Christian,1495130337,146.8135212,-19.2576742
place_of_worship,Catholic,St Patrick'S,Christian,1507950985,143.141099,-38.2347075
place_of_worship,Macedonian Orthodox,Saint Prohor Of Pcinja,Christian,1511360622,144.9755971,-37.5313854
place_of_worship,Uniting,Romsey Uniting Church,Christian,1517579153,144.7401351,-37.3462354
place_of_worship,Anglican,Gold Coast North Anglican Church,Christian,1519065819,153.2956355,-27.8936991
place_of_worship,Afbc / Independent,Living Hope Baptist,Christian,1520944041,150.8972753,-34.3695476
place_of_worship,Catholic,Catholic Church,Christian,1524302995,146.0090065,-36.0093561
place_of_worship,Catholic,St Anthony'S Catholic Church,Christian,1530449871,145.1729306,-37.9721071
place_of_worship,Catholic,Our Lady Of Lourdes,Christian,1535069854,147.8445292,-20.5541538
place_of_worship,Catholic,St Joseph'S,Christian,1535257393,115.9512401,-31.9038113
place_of_worship,Anglican,St Anne'S Anglican Church,Christian,1536005971,151.9497756,-27.4581353
place_of_worship,Baptist,Highfields Baptist Church,Christian,1536009080,151.9453178,-27.4603392
place_of_worship,Uniting,Southport Uniting Church,Christian,1536227475,153.415281,-27.9702115
place_of_worship,Other,Rangeville Community Church,Christian,1546551683,151.9705637,-27.5947023
place_of_worship,Unknown,Outback Life Church,Christian,1547171799,148.5887144,-28.0416058
place_of_worship,Pentecostal,Christian Outreach Centre,Christian,1548621335,148.7895394,-26.5706996
place_of_worship,Uniting,Roma Uniting Church,Christian,1548621351,148.7895263,-26.5697756
place_of_worship,Anglican,Anglican Church,Christian,1550131812,150.6716755,-35.0408592
place_of_worship,Seventh Day Adventist,Ascot Vale Seventh Day Adventist Church.,Christian,1550304856,144.9144726,-37.7728458
place_of_worship,Unknown,Noranda Church Of Christ,Christian,1557325310,115.9055175,-31.8793223
place_of_worship,Assemblies Of God,Globe Church,Christian,1558806696,151.6929049,-32.9799866
place_of_worship,Unknown,St Luke'S,Christian,1559370482,150.1875613,-26.6573932
place_of_worship,Jehovahs Witness,Kingdom Hall,Christian,1564749472,115.9482685,-32.0453837
place_of_worship,Seventh Day Adventist,Lilydale Seventh-Day Adventist Church,Christian,1568475329,145.3625344,-37.7777044
place_of_worship,Catholic,Immaculate Conception Catholic Church,Christian,1572246020,145.1914591,-38.3033373
place_of_worship,Lutheran,St John'S Lutheran Church,Christian,1575451951,151.9214924,-27.5425404
place_of_worship,Church Of Christ,Mulgrave Church Of Christ,Christian,1576291556,145.1954022,-37.928242
place_of_worship,Unknown,Church Of The Assumption Of Our Lady,Christian,1577577879,151.192252,-33.8924393
place_of_worship,Baptist,Stanthorpe Baptist Church,Christian,1580648533,151.9267626,-28.6550117
place_of_worship,Uniting,Deception Bay Uniting Church,Christian,1582061915,153.0357012,-27.2016511
place_of_worship,Pentecostal,Liberty Assemblies Of God,Christian,1583676827,150.9239277,-31.140882
place_of_worship,Baptist,Bedford Baptist Church,Christian,1587473441,115.8902613,-31.9148387
place_of_worship,Catholic,Immaculate Heart Of Mary,Christian,1590650671,149.8288003,-31.3429876
place_of_worship,Roman Catholic,Sacred Heart,Christian,1590650694,149.7112788,-31.826243
place_of_worship,Anglican,St Andrews Anglican Church,Christian,1590650696,149.7217236,-31.8224341
place_of_worship,Unknown,St Mark'S Tambar Springs,Christian,1590650697,149.8295266,-31.3449346
place_of_worship,Anglican,St Philips,Christian,1592753060,149.9126708,-31.0971278
place_of_worship,Catholic,St Theresa'S,Christian,1592753065,149.9118195,-31.0975192
place_of_worship,Anglican,St Thomas,Christian,1594599857,149.7952227,-29.9187139
place_of_worship,Presbyterian,Presbyterian Church,Christian,1594600124,149.6359858,-29.0755827
place_of_worship,Baptist,Katanning Baptist Church,Christian,1597517964,117.5675465,-33.6807114
place_of_worship,Uniting,Wheelers Hill Uniting Church,Christian,1597527589,145.176316,-37.9048131
place_of_worship,Roman Catholic,Good Shepherd Catholic Church,Christian,1597534046,145.1664023,-37.9077461
place_of_worship,Uniting,St Columba'S,Christian,1599730668,147.0650583,-38.1098439
place_of_worship,Serbian Orthodox,Church Of The Holy Trinity,Christian,1607437593,115.8753441,-31.9429963
place_of_worship,Anglican,St Michael & All Angels,Christian,1608334899,145.0371271,-37.9910807
place_of_worship,Unknown,Adelaide Mosque,Muslim,1614034144,138.5917962,-34.934145
place_of_worship,Catholic,St Paul'S,Christian,1614248457,115.861725,-31.9236325
place_of_worship,Community Of Christ,Rosanna Community Of Christ,Christian,1615174468,145.0841896,-37.7419674
place_of_worship,Catholic,St. Francis Xavier Catholic Church,Christian,1618699971,151.1145775,-33.8971
place_of_worship,Anglican,St. Matthew'S,Christian,1618707689,151.1155299,-33.8995847
place_of_worship,Catholic,St. Augustine'S Catholic Church,Christian,1629252779,143.7361031,-37.0520733
place_of_worship,Anglican,St David'S Anglican Church,Christian,1631176783,147.8477837,-43.1460318
place_of_worship,Church Of Christ,Nubeena Church Of Christ,Christian,1631224143,147.7441096,-43.0974297
place_of_worship,Anglican,Saint James Of Jerusalem,Christian,1631224186,147.3652422,-42.5365792
place_of_worship,Anglican,St George'S Anglican Church,Christian,1631224190,147.42203,-42.6658345
place_of_worship,Anglican,St Martin'S Anglican Church,Christian,1631232114,147.8119802,-42.8866123
place_of_worship,Anglican,St Martin'S Anglican Church,Christian,1631904742,147.8158063,-43.0617495
place_of_worship,Unknown,New Life Church Mackay,Christian,1633914447,149.1851324,-21.1230582
place_of_worship,Uniting,St Ambrose Parish Church,Christian,1633914473,149.1800952,-21.1174487
place_of_worship,Unknown,St Josephs Catholic Church,Christian,1636303945,149.1885576,-21.123065
place_of_worship,Anglican,St Alfred'S Anglican Church,Christian,1638401918,145.1518628,-37.8099778
place_of_worship,Unknown,The Apostolic Church Of Queensland,Christian,1640336495,149.1709122,-21.1290196
place_of_worship,Uniting,Northside Uniting Church,Christian,1641710280,149.1819451,-21.0922519
place_of_worship,Unknown,Church Of Christ,Christian,1641710293,149.173941,-21.109252
place_of_worship,Unknown,Seventhday Adventist Church,Christian,1643659856,149.1773946,-21.1485682
place_of_worship,Anglican,St. Andrew'S Anglican Church,Christian,1645483816,151.7278779,-32.6654876
place_of_worship,Catholic,Old Marian Convent School,Christian,1646750718,148.9498767,-21.1464734
place_of_worship,Lutheran,St Mathews,Christian,1649891416,151.8520186,-27.3013835
place_of_worship,Catholic,The Monastery,Christian,1652810412,138.6422783,-34.9644304
place_of_worship,Serbian Orthodox,Saint Elijah Church,Christian,1656611322,134.7734022,-29.012718
place_of_worship,Catholic,Holy Cross Catholic Church,Christian,1659853021,148.9747582,-21.2655382
place_of_worship,Catholic,St Therese'S Church,Christian,1666777594,144.2984867,-36.7667108
place_of_worship,Anglican,St Edmunds Anglican Church,Christian,1668159435,115.8132259,-31.9352974
place_of_worship,Catholic,St Anthony'S,Christian,1673021294,153.2166294,-27.520812
place_of_worship,Baptist,Parkerville Baptist Church,Christian,1677088329,116.1384947,-31.8911924
place_of_worship,Unknown,Church Of Living Waters,Christian,1681519971,117.919741,-34.9937704
place_of_worship,Uniting,Officer Uniting Church,Christian,1682414577,145.4109318,-38.0593033
place_of_worship,Catholic,Catholic Church,Christian,1683225734,149.7976593,-25.6454192
place_of_worship,Presbyterian,Ashfield Presbyterian Church,Christian,1689363435,151.1229566,-33.8881407
place_of_worship,Catholic,St Pius X Catholic Church,Christian,1693963249,145.0467581,-37.7466826
place_of_worship,Church Of Christ,Church Of Christ,Christian,1693964278,145.047198,-37.7473846
place_of_worship,Anglican,Anglican Church,Christian,1693972439,151.5979031,-29.4468313
place_of_worship,Catholic,St Mary'S,Christian,1693972454,151.5994481,-29.4448413
place_of_worship,Catholic,Mary Immaculate Catholic Church,Christian,1693973000,145.040471,-37.7710158
place_of_worship,Catholic,St John'S Catholic Church,Christian,1702135113,150.7990485,-34.4930021
place_of_worship,Unknown,Fish Creek Union Church,Christian,1704087870,146.0791145,-38.6948657
place_of_worship,Uniting,St Andrews Uniting Church,Christian,1706813397,146.1550502,-38.4012353
place_of_worship,Catholic,Holy Family Church,Christian,1708094639,116.0599861,-31.9747949
place_of_worship,Anglican,St Barnabas Church,Christian,1708095982,116.0603294,-31.9721055
place_of_worship,Uniting,South Camberwell Uniting Church,Christian,1709530978,145.0570083,-37.8462705
place_of_worship,Anglican,St Barnabas,Christian,1712526020,153.053748,-27.5776149
place_of_worship,Anglican,Christ Church,Christian,1714218913,147.1204986,-41.5941324
place_of_worship,Baptist,Church,Christian,1714250307,147.1259167,-41.6039487
place_of_worship,Unknown,Our Lady Of Mount Carmel,Christian,1716262723,150.9689073,-33.8118266
place_of_worship,Uniting,Burnie Regional Uniting Church,Christian,1720199034,145.9044247,-41.0537475
place_of_worship,Uniting,Northcote Uniting Church,Christian,1725251808,144.9979288,-37.7729876
place_of_worship,Methodist,Goodwood Methodist Church,Christian,1731494943,138.5893984,-34.9529729
place_of_worship,Unknown,Mackay Islamic Society,Muslim,1732585575,149.1475907,-21.202774
place_of_worship,Anglican,Christ Church Hawthorn,Christian,1733878863,145.017943,-37.819008
place_of_worship,Uniting,Uniting Church In Australia,Christian,1734660841,151.694665,-32.8879353
place_of_worship,Uniting,St Paul'S Uniting Church,Christian,1736151588,149.1835643,-21.1419726
place_of_worship,Catholic,St Ann'S Catholic Church,Christian,1737153232,138.6793092,-34.7267729
place_of_worship,Catholic,Holy Family Catholic Church,Christian,1739886383,144.3384113,-38.1106557
place_of_worship,Reformed,One Way Christian Church,Christian,1741020597,147.2721338,-43.0281679
place_of_worship,Uniting,Uniting Church,Christian,1742555926,145.1997436,-37.6361251
place_of_worship,Unknown,Tibetan Buddhist Rime Institute,Buddhist,1745429494,145.3479571,-37.907659699999996
place_of_worship,Unknown,St John'S Lutheran Church,Christian,1749238460,151.835663,-26.5419732
place_of_worship,Presbyterian,Mackay Presbyterian Church,Christian,1759062715,149.1843023,-21.1220952
place_of_worship,Pentecostal,Slade Point Christian Life Centre,Christian,1759062722,149.2176368,-21.0762313
place_of_worship,Anglican,Brookfield Centre For Christian Spirituality,Christian,1765144559,152.9308837,-27.5003541
place_of_worship,Seventh Day Adventist,Spotswood Seventh Day Adventist Church,Christian,1768321196,144.8841981,-37.8309515
place_of_worship,Uniting,Malvern Hill Uniting Church,Christian,1769205286,151.1127965,-33.8842777
place_of_worship,Uniting,Elizabeth Grove Uniting Church,Christian,1772034377,138.6658135,-34.7347486
place_of_worship,Seventh Day Adventist,Brisbane Central,Christian,1774533566,153.0142057,-27.467103
place_of_worship,Unknown,The Chapel,Christian,1777643108,145.5005459,-37.0629631
place_of_worship,Uniting,Clayton Wesley Uniting Church,Christian,1778030394,138.6413669,-34.9207985
place_of_worship,Uniting,Prospect Road Uniting Church,Christian,1778075115,138.5935579,-34.8830272
place_of_worship,Anglican,St Paul'S Anglican Church,Christian,1782260865,143.1468236,-38.230536
place_of_worship,Unknown,Generation City Church,Christian,1782306091,151.747524,-32.924307999999996
place_of_worship,Orthodox,Greek Orthodox Church Of The Holy Apostles,Christian,1782468801,151.7445343,-32.9228159
place_of_worship,Roman Catholic,St Joseph'S Catholic Church,Christian,1782651573,143.4318929,-38.3502353
place_of_worship,Anglican,St Peter'S,Christian,1784658707,149.7601398,-37.5585829
place_of_worship,Lutheran,St Peters Lutheran Church,Christian,1784681358,138.6741242,-34.7133995
place_of_worship,Baptist,Burnie Baptist Church,Christian,1788208164,145.9050599,-41.0530878
place_of_worship,Anglican;Uniting,St John The Evangelist,Christian,1789975321,149.1529587,-37.5659011
place_of_worship,Unknown,St Thomas Moore Church,Christian,1790051596,138.678657,-34.7026655
place_of_worship,Catholic,Saint Thomas Beckett,Christian,1790744015,151.1480972,-33.8928434
place_of_worship,Anglican,Saint Paul Anglican Church,Christian,1794308674,144.3540277,-38.1426494
place_of_worship,Anglican,St Andrews,Christian,1797621838,148.4498568,-34.1626323
place_of_worship,Anglican,St Matthews,Christian,1797621840,148.2374886,-34.4240186
place_of_worship,Presbyterian,St Pauls,Christian,1797621862,148.2985908,-34.3125275
place_of_worship,Uniting,Penguin Uniting Church,Christian,1801530069,146.0706714,-41.1119838
place_of_worship,Catholic,Saint Mary'S,Christian,1801530070,146.0721332,-41.1156291
place_of_worship,Uniting,St David'S,Christian,1801689057,150.6312472,-33.5317563
place_of_worship,Uniting,Windsor Uniting Church,Christian,1801689072,150.8208509,-33.6075606
place_of_worship,Unknown,St Andrews Walkerston,Christian,1808759440,149.0631372,-21.159186300000002
place_of_worship,Unknown,St Mary Magdalene,Christian,1808776790,149.0653514,-21.1592178
place_of_worship,Unknown,St Johns Catholic Church,Christian,1812382758,149.0673584,-21.1615075
place_of_worship,Anglican,Saint Paul'S,Christian,1813686335,151.6184069,-32.6004385
place_of_worship,Presbyterian,Saint Annes,Christian,1813686336,151.6166635,-32.5988613
place_of_worship,Catholic,Marian Catholic Church,Christian,1815640792,148.9497432,-21.1456919
place_of_worship,Catholic,St Patricks,Christian,1817035191,151.1333212,-33.8939298
place_of_worship,Uniting,Ashbury Samoan Uniting Church,Christian,1817241689,151.1197218,-33.8991035
place_of_worship,Uniting,Augusta Uniting Church,Christian,1821236931,115.1591346,-34.3154682
place_of_worship,Seventh Day Adventist,Seventhday Adventist Church,Christian,1822486691,149.0665824,-21.1592479
place_of_worship,Catholic,Lumen Christi,Christian,1822578246,115.1588907,-34.3133383
place_of_worship,Anglican,St Columbs Anglican Church,Christian,1822907051,151.0832785,-33.8057347
place_of_worship,Roman Catholic,St Mary'S Cathedral,Christian,1824934401,147.3191501,-42.8811059
place_of_worship,Roman Catholic,St Patrick'S,Christian,1824937010,147.3263628,-42.8853212
place_of_worship,Anglican,St. Barnabas,Christian,1833107577,151.1961929,-33.8837411
place_of_worship,Uniting,Westbourne Park Uniting Church,Christian,1837375131,138.5997027,-34.9718173
place_of_worship,Unknown,Imaginations Church,Christian,1847655503,150.7097562,-33.784536
place_of_worship,Unknown,Redfern Mosque,Muslim,1851026582,151.2094765,-33.8903628
place_of_worship,Salvation Army,Salvation Army (Albany),Christian,1852641231,117.8802431,-35.0072588
place_of_worship,Catholic,Saints Peter And Paul Church,Christian,1857627992,134.7553016,-29.0122355
place_of_worship,Catholic,St Agathas,Christian,1858569198,151.0663317,-33.7387767
place_of_worship,Anglican,Holy Trinity Church,Christian,1861165837,151.6293011,-33.1502117
place_of_worship,Uniting,Caves Beach Uniting Church,Christian,1863877077,151.6404493,-33.1066153
place_of_worship,Roman Catholic,Saint Patrick'S Church - Swansea,Christian,1863892303,151.6421775,-33.0972379
place_of_worship,Catholic,St. Francis Of Assissi Catholic Church,Christian,1865223851,145.0588726,-37.6651211
place_of_worship,Catholic,St John'S Church,Christian,1875729103,153.0426188,-28.1276627
place_of_worship,Church Of Christ,Dubbo Community Church,Christian,1876035834,148.6575262,-32.2602836
place_of_worship,Anglican,St John The Baptist,Christian,1876035865,148.9434466,-32.5517113
place_of_worship,Baptist,Ballajura Baptist Church,Christian,1882241321,115.8901699,-31.8466968
place_of_worship,Catholic,St Patricks Catholic Church,Christian,1889024170,149.1849917,-21.138623
place_of_worship,Catholic,Saint Patricks,Christian,1901320113,152.8517294,-26.3668729
place_of_worship,Baptist,St Ives Baptist Church,Christian,1904266930,151.1615916,-33.7244615
place_of_worship,Uniting,St Andrew'S Uniting Church,Christian,1905755479,145.1217234,-37.8174673
place_of_worship,Unknown,Holy Trinity Parish Centre,Christian,1907879563,149.1857849,-21.1436041
place_of_worship,Unknown,Mackay Baptist Church,Christian,1907879572,149.188156,-21.1475266
place_of_worship,Unknown,Mackay Community Lutheran Church,Christian,1907882315,149.1799538,-21.1443946
place_of_worship,Unknown,St Peters Presbyterian,Christian,1911597074,151.2059678,-33.8410796
place_of_worship,Unknown,St Mary'S Catholic Church,Christian,1912688966,149.1844926,-21.153273
place_of_worship,Anglican,Holy Trinity,Christian,1916537157,144.2906011,-36.776884
place_of_worship,Christadelphian,Mount Waverley Christadelphians,Christian,1916689738,145.125338,-37.8848286
place_of_worship,New Church,The New Church Mount Waverley,Christian,1916689739,145.1335137,-37.8707718
place_of_worship,Unknown,Union Church,Christian,1919826845,152.239427,-26.0848823
place_of_worship,Catholic,St. Joseph'S Catholic Church,Christian,1920022425,151.6055152,-25.6231848
place_of_worship,Uniting,St David'S Uniting Church,Christian,1924371997,151.1637884,-33.7730818
place_of_worship,Seventh Day Adventist,Gayndah Seventh-Day Adventist Church,Christian,1925217351,151.6213794,-25.6304698
place_of_worship,Unknown,Gospel Chapel,Christian,1928482909,152.0474842,-25.5123559
place_of_worship,Catholic,St. Peters Catholic Church,Christian,1928482932,152.046439,-25.5112176
place_of_worship,Uniting,The Church In The Trees,Christian,1928529063,151.4796902,-33.1054593
place_of_worship,Unknown,Cham Shan Temple,Buddhist,1928529074,151.4762663,-33.1044154
place_of_worship,Uniting,St Andrews Tiaro,Christian,1933339441,152.579277,-25.7249594
place_of_worship,Catholic,Saint Catherine Laboure Catholic Church,Christian,1933352251,145.0523056,-37.9372401
place_of_worship,Catholic,Sacred Heart Catholic Church,Christian,1933510928,152.5851044,-25.727127199999998
place_of_worship,Uniting,Bentleigh Uniting Church,Christian,1933716968,145.0432641,-37.9188432
place_of_worship,Anglican,St Marks,Christian,1934740966,151.0695438,-33.7351093
place_of_worship,Christ Scientist,"First Church Of Christ, Scientist",Christian,1942606167,145.1293713,-37.8761163
place_of_worship,Orthodox,South Brisbane Synagogue - Givat Zion,Jewish,1950328051,153.0462092,-27.5079547
place_of_worship,Anglican,Holy Trinity Church,Christian,1950629079,149.1863641,-21.1436569
place_of_worship,Catholic,Saints Peter And Paul,Christian,1950674597,149.4529174,-35.4234948
place_of_worship,Mormon,Mormon,Christian,1951924306,145.3107249,-37.9936183
place_of_worship,Baptist,Narre Warren Baptist Church,Christian,1951924312,145.3126641,-37.9936162
place_of_worship,Unknown,St. Francis Xavier'S Catholic Church,Christian,1952088484,149.1613126,-21.150367
place_of_worship,Pentecostal,Eaglehawk Christian Life Centre,Christian,1954694548,144.26895,-36.755395
place_of_worship,Catholic,Sacred Heart Church,Christian,1956013082,149.4135989,-34.662605
place_of_worship,Catholic,St Andrews Catholic Church,Christian,1958019248,115.7220558,-31.6881488
place_of_worship,Seventh Day Adventist,Clarkson Seventh Day Adventist Church,Christian,1958027081,115.7148887,-31.680984
place_of_worship,Pentecostal,Oceans Church,Christian,1958031439,115.7146634,-31.6808244
place_of_worship,Hillsong,Hillsong Church City Campus,Christian,1958174397,151.2088095,-33.8978709
place_of_worship,Baptist,Quinns Baptist,Christian,1959439454,115.7095676,-31.6750241
place_of_worship,Catholic,St Josephs Church,Christian,1959796946,151.0550493,-33.9515319
place_of_worship,Anglican,Upper Colo Anglican Church,Christian,1964067688,150.7267162,-33.4242627
place_of_worship,Catholic,Holy Spirit Catholic Church North Ryde,Christian,1967977764,151.124519,-33.7961368
place_of_worship,Catholic,Good Shepherd Catholic Church,Christian,1973651795,139.9101834,-22.9103211
place_of_worship,Anglican,Christ Church Greta,Christian,1973804749,146.2759317,-36.5493969
place_of_worship,Unknown,Greta Uniting Church,Christian,1973804766,146.27563,-36.5516352
place_of_worship,Unknown,St Anthony'S Parish,Christian,1974543215,151.102918,-33.781012
place_of_worship,Anglican,St Peter'S Anglican Church,Christian,1974552706,151.2700977,-27.8742417
place_of_worship,Pentecostal,Sunset Coast Clc,Christian,1975646644,115.7646024,-31.7513677
place_of_worship,Pentecostal,Cornerstone,Christian,1975646645,115.7625857,-31.7494931
place_of_worship,C3 Church,Christian City Church Joondalup,Christian,1975648461,115.7643664,-31.7504782
place_of_worship,Unknown,St John'S Anglican Church,Christian,1976210901,148.7735733,-35.9936632
place_of_worship,Unknown,St Mary'S Catholic Church,Christian,1976210902,148.7772206,-35.9951009
place_of_worship,Anglican,St Matthews Anglican Church,Christian,1977400693,147.4469805,-42.8994207
place_of_worship,Church Of Christ,Church Of Christ,Christian,1986184539,152.281612,-27.5554523
place_of_worship,Unknown,City Baptist Church,Christian,1993216973,147.140875,-41.4413008
place_of_worship,Unknown,Chalmers Church,Christian,1993216993,147.1414275,-41.4410314
place_of_worship,Catholic,Saint Laurence O'Toole Church,Christian,1994915822,145.8348878,-31.4988977
place_of_worship,Presbyterian,Presbyterian Church,Christian,2000594284,143.566431,-34.6416179
place_of_worship,Unknown,Southside International Church,Christian,2002165518,153.0599418,-27.5878261
place_of_worship,Uniting,North Ryde Community Church,Christian,2003841899,151.1310568,-33.8004553
